Store,Address,City,State,Zip Code,Phone,Latitude,Longitude,Temperature,Is Day or Night,Rain,Snowfall,Weather Code,Wind Speed,Wind Direction
1636,3900 S BROADWAY,MINOT,ND,58701-7534,(701) 838-2176,48.1946788,-101.3002743,-1.6,Night,0.0,0.0,0.0,8.0,188.0
3875,1625 COMMERCE DR,WAHPETON,ND,58075-3168,(701) 642-9086,46.336591,-96.792057,-2.5,Night,2.86,0.1,0.0,5.8,277.0
1565,4001 2ND AVE W,WILLISTON,ND,58801-2603,(701) 572-8550,48.182032,-103.6303645,-1.3,Night,0.0,0.0,0.0,5.7,145.0
2784,3620 N 6TH ST,BEATRICE,NE,68310-1141,(402) 228-1244,40.3041963,-96.7439712,5.2,Night,0.0,0.0,0.0,6.9,152.0
2847,10504 S 15TH ST,BELLEVUE,NE,68123-4084,(402) 292-0156,41.156124,-95.9362761,4.4,Night,0.0,0.0,0.0,5.0,60.0
3154,2109 TOWNE CENTER DR,BELLEVUE,NE,68123-0000,(402) 686-2040,41.1162622,-95.9428095,4.3,Night,0.0,0.0,0.0,3.2,63.0
4568,1882 HOLLY ST,BLAIR,NE,68008-6309,(402) 533-8222,41.5259333,-96.140451,2.9,Night,0.0,0.0,0.0,9.0,164.0
2579,510 LINDEN ST,CHADRON,NE,69337-6989,(308) 432-6999,42.827383,-103.0221191,1.7,Night,0.0,0.0,0.0,5.0,240.0
774,818 E 23RD ST,COLUMBUS,NE,68601-3866,(402) 564-1668,41.438542,-97.312494,2.7,Night,0.0,0.0,1.0,6.1,87.0
4322,1800 E 29TH ST,CRETE,NE,68333-3074,(402) 826-1002,40.640564,-96.9395658,4.6,Night,0.0,0.0,0.0,9.5,169.0
418,2831 HIGHWAY 15,FAIRBURY,NE,68352-1008,(402) 729-3394,40.1626751,-97.1753635,4.8,Night,0.0,0.0,0.0,7.3,147.0
776,3010 E 23RD ST,FREMONT,NE,68025-2479,(402) 727-0414,41.4530755,-96.4567608,2.6,Night,0.0,0.0,0.0,7.0,125.0
1326,2250 N DIERS AVE,GRAND ISLAND,NE,68803-1258,(308) 381-0333,40.9427667,-98.3870336,4.5,Night,0.0,0.0,2.0,9.5,191.0
3395,3501 S LOCUST ST,GRAND ISLAND,NE,68801-8853,(308) 381-4970,40.8854941,-98.335532,4.3,Night,0.0,0.0,2.0,8.8,189.0
4600,11350 WICKERSHAM BLVD,GRETNA,NE,68028-6979,(402) 881-3530,41.1434002,-96.1657137,4.2,Night,0.0,0.0,0.0,4.4,125.0
1460,3803 OSBORNE DR W,HASTINGS,NE,68901-9139,(402) 462-6000,40.6242436,-98.3858088,4.8,Night,0.0,0.0,2.0,11.4,193.0
598,5411 2ND AVE,KEARNEY,NE,68847-2435,(308) 234-8448,40.7271972,-99.0836877,3.9,Night,0.0,0.0,3.0,10.8,178.0
3173,9460 GILES RD,LA VISTA,NE,68128-3064,(402) 513-4207,41.1778494,-96.059667,4.0,Night,0.0,0.0,0.0,5.8,68.0
637,200 FRONTIER ST,LEXINGTON,NE,68850-5677,(308) 324-7427,40.7448886,-99.7424869,4.0,Night,0.0,0.0,3.0,10.7,166.0
1943,4700 N 27TH ST,LINCOLN,NE,68521-1190,(402) 438-4377,40.858271,-96.6777482,4.0,Night,0.0,0.0,0.0,2.1,31.0
2432,2500 JAMIE LN,LINCOLN,NE,68512-9496,(402) 975-6171,40.7294708,-96.6850782,4.8,Night,0.0,0.0,0.0,7.8,146.0
3278,8700 ANDERMATT DR,LINCOLN,NE,68526-9653,(402) 484-6166,40.7363529,-96.59957,4.6,Night,0.0,0.0,0.0,10.0,150.0
3823,3400 N 85TH ST,LINCOLN,NE,68507-9435,(402) 466-0447,40.849433,-96.6022653,4.8,Night,0.0,0.0,0.0,6.2,144.0
790,1902 W B ST,MCCOOK,NE,69001-3579,(308) 345-1800,40.1987785,-100.6523383,4.7,Night,0.0,0.0,0.0,9.5,99.0
4209,2101 S 11TH ST,NEBRASKA CITY,NE,68410-3481,(402) 874-9080,40.6576232,-95.8557715,4.9,Night,0.0,0.0,0.0,8.5,168.0
645,2400 W PASEWALK AVE,NORFOLK,NE,68701-4608,(402) 371-5452,42.025815,-97.43382,1.8,Night,0.0,0.0,0.0,3.5,114.0
1585,1401 S DEWEY ST,NORTH PLATTE,NE,69101-7622,(308) 532-5529,41.1204845,-100.7582372,3.5,Night,0.0,0.0,0.0,7.6,121.0
7129,201 PONY EXPRESS LN,OGALLALA,NE,69153-3101,(308) 284-0143,41.1135691,-101.7190052,3.5,Night,0.0,0.0,3.0,6.9,118.0
1637,6304 N 99TH ST,OMAHA,NE,68134-1528,(402) 492-9344,41.3155078,-96.068966,3.2,Night,0.0,0.0,0.0,6.2,100.0
1671,8525 S. 71ST ST. PLAZA,OMAHA,NE,68157-0000,(402) 597-8977,41.235382,-96.020783,4.0,Night,0.0,0.0,0.0,5.6,75.0
3151,5018 AMES AVE,OMAHA,NE,68104-2323,(402) 970-9301,41.3019536,-95.9914767,3.7,Night,0.0,0.0,0.0,5.6,105.0
3152,2451 NORTH 90TH STREET,OMAHA,NE,68134-0000,(402) 513-4030,41.2807564,-96.0527245,3.8,Night,0.0,0.0,0.0,6.5,90.0
3153,6710 S 167TH ST,OMAHA,NE,68135-5421,(402) 609-5703,41.1918899,-96.1768843,3.8,Night,0.0,0.0,0.0,5.2,65.0
3172,5051 L ST,OMAHA,NE,68117-1328,(402) 541-0820,41.2118289,-95.9932728,4.3,Night,0.0,0.0,0.0,6.2,80.0
3267,18201 WRIGHT ST,OMAHA,NE,68130-2875,(402) 330-4400,41.2316678,-96.1985056,3.8,Night,0.0,0.0,0.0,6.1,93.0
4138,13105 BIRCH DR,OMAHA,NE,68164-5222,(402) 686-2055,41.2909913,-96.1176682,3.4,Night,0.0,0.0,0.0,4.7,86.0
4139,360 NORTH SADDLECREEK ROAD,OMAHA,NE,68131-0000,(402) 970-6491,41.262346,-95.98054,3.8,Night,0.0,0.0,0.0,3.1,111.0
4358,1606 S 72ND ST,OMAHA,NE,68124-1600,(402) 393-9560,41.2436653,-96.0260784,4.0,Night,0.0,0.0,0.0,5.6,75.0
5141,16960 W MAPLE RD,OMAHA,NE,68116-2237,(402) 289-9238,41.2952846,-96.1801083,3.4,Night,0.0,0.0,0.0,6.3,103.0
5361,12850 L ST,OMAHA,NE,68137-2078,(402) 697-1054,41.2143676,-96.113716,4.1,Night,0.0,0.0,0.0,5.6,75.0
867,3322 AVENUE I,SCOTTSBLUFF,NE,69361-4589,(308) 632-2666,41.8795862,-103.6789026,1.5,Night,0.0,0.0,2.0,6.1,93.0
885,1326 280TH,SEWARD,NE,68434-7541,(402) 643-6631,40.8766526,-97.0987473,3.2,Night,0.0,0.0,0.0,7.4,151.0
5170,3001 SILVERBERG DR,SIDNEY,NE,69162-3033,(308) 254-9138,41.1167218,-102.9447099,3.2,Night,0.0,0.0,3.0,11.2,165.0
1332,1601 CORNHUSKER DR,SOUTH SIOUX CITY,NE,68776-3924,(402) 494-8858,42.473478,-96.4300894,1.3,Night,0.0,0.0,0.0,3.8,197.0
350,101 E DAVID DR,YORK,NE,68467-9459,(402) 362-3366,40.826699,-97.597771,3.9,Night,0.0,0.0,0.0,9.2,154.0
1796,85 STATE ROUTE 101A,AMHERST,NH,03031-2216,(603) 672-3421,42.8096924,-71.5785756,18.2,Night,1.4,0.0,0.0,9.4,184.0
1975,14 BOWEN ST,CLAREMONT,NH,03743-2329,(603) 542-2703,43.3784387,-72.3294533,17.2,Night,1.1,0.0,3.0,10.8,165.0
2055,344 LOUDON RD,CONCORD,NH,03301-6095,(603) 226-9312,43.2270512,-71.4806043,16.9,Night,0.1,0.0,3.0,11.4,169.0
1753,11 ASHLEIGH DRIVE,DERRY,NH,03038-3054,(603) 434-3589,42.9018189,-71.3261939,16.9,Night,0.5,0.0,0.0,11.7,198.0
3535,35 FRESH RIVER RD,EPPING,NH,03042-2225,(603) 679-5919,43.0273497,-71.0680867,17.1,Night,0.1,0.0,0.0,8.7,185.0
2639,1458 LAKE SHORE RD,GILFORD,NH,03249-2221,(603) 528-8011,43.5746704,-71.4015053,15.1,Night,0.7,0.0,0.0,9.3,193.0
2634,561 MAIN ST,GORHAM,NH,03581-4901,(603) 752-4621,44.426794,-71.1939967,18.1,Night,4.4,0.0,3.0,11.6,22.0
1907,724 BRATTLEBORO RD,HINSDALE,NH,03451-2359,(603) 336-5538,42.8139767,-72.531544,17.0,Night,1.0,0.0,2.0,8.9,122.0
1698,3 COMMERCE DR,HOOKSETT,NH,03106-2528,(603) 644-8144,43.041116,-71.4745429,15.0,Night,0.4,0.0,2.0,8.6,147.0
1785,254 LOWELL RD,HUDSON,NH,03051-4913,(603) 598-4226,42.7272742,-71.4230351,17.6,Night,0.0,0.0,0.0,9.2,191.0
3549,350 WINCHESTER ST,KEENE,NH,03431-3936,(603) 357-7200,42.923719,-72.289951,15.6,Night,0.3,0.0,0.0,8.0,98.0
2681,615 MEADOW ST,LITTLETON,NH,03561-3624,(603) 444-6300,44.3047125,-71.7987111,16.2,Night,3.0,0.0,0.0,7.5,253.0
2399,725 GOLD ST,MANCHESTER,NH,03103-4008,(603) 621-9666,42.9558174,-71.4444913,16.1,Night,0.3,0.0,0.0,11.2,180.0
2398,2200 WOODBURY AVE,NEWINGTON,NH,03801-2101,(603) 430-9985,43.1008281,-70.8057138,16.6,Night,0.1,0.0,0.0,9.4,187.0
2140,46 N SOUTH RD,NORTH CONWAY,NH,03860-5122,(603) 356-0130,44.0171477,-71.1064648,16.0,Night,1.2,0.0,1.0,10.3,144.0
1930,58 PLAISTOW RD,PLAISTOW,NH,03865-2831,(603) 382-2839,42.8260312,-71.1113746,17.6,Night,0.5,0.0,0.0,10.1,197.0
2758,683 TENNEY MOUNTAIN HWY,PLYMOUTH,NH,03264-3161,(603) 536-5352,43.769286,-71.7422955,15.1,Night,2.7,0.0,0.0,4.1,38.0
2130,2460 LAFAYETTE RD,PORTSMOUTH,NH,03801-5618,(603) 433-6008,43.0334127,-70.7833017,17.2,Night,0.2,0.0,0.0,10.4,194.0
2057,750 US ROUTE 202,RINDGE,NH,03461-5615,(603) 899-6882,42.767084,-72.03519,16.7,Night,1.0,0.0,2.0,19.1,202.0
2330,116 FARMINGTON RD,ROCHESTER,NH,03867-4352,(603) 332-4300,43.3506897,-71.0257461,16.7,Night,0.4,0.0,3.0,8.7,163.0
2142,326 N BROADWAY,SALEM,NH,03079-2122,(603) 894-5642,42.80196,-71.2386047,16.4,Night,0.5,0.0,0.0,8.2,195.0
1762,700 LAFAYETTE RD,SEABROOK,NH,03874-6202,(603) 474-2037,42.893575,-70.872445,18.2,Night,0.3,0.0,0.0,13.8,200.0
1749,59 WALTONS WAY,SOMERSWORTH,NH,03878-1044,(603) 692-6346,43.26175,-70.86534,16.0,Night,0.3,0.0,3.0,8.7,175.0
2369,33 SHERWOOD DRIVE,TILTON,NH,03276-5783,(603) 286-7673,43.456371,-71.578788,15.3,Night,0.6,0.0,0.0,8.3,182.0
2138,285 PLAINFIELD RD,WEST LEBANON,NH,03784-2029,(603) 298-5014,43.6247124,-72.322742,15.5,Night,1.4,0.0,1.0,9.9,199.0
4389,4901 DARTMOUTH COLLEGE HWY,WOODSVILLE,NH,03785-1412,(603) 747-8250,44.1409177,-72.0267492,18.4,Night,3.3,0.0,0.0,16.3,174.0
5047,130 BLACK HORSE PIKE,AUDUBON,NJ,08106-1960,(856) 310-1470,39.8916117,-75.088356,20.6,Night,0.1,0.0,2.0,17.6,208.0
5867,500 BAYONNE CROSSING WAY,BAYONNE,NJ,07002-5305,(201) 620-6137,40.654067,-74.134155,21.2,Night,0.0,0.0,3.0,18.7,210.0
5077,300 WOOTTON ST,BOONTON,NJ,07005-1925,(973) 299-3943,40.9064888,-74.4039041,20.2,Night,0.0,0.0,3.0,12.9,216.0
1977,1872 ROUTE 88,BRICK,NJ,08724-3535,(732) 840-7772,40.070691,-74.123643,18.9,Night,0.0,0.0,3.0,10.8,210.0
5384,1130 HIGHWAY 77,BRIDGETON,NJ,08302-5988,(856) 453-0418,39.469809,-75.206478,19.5,Night,0.2,0.0,2.0,18.7,203.0
2040,2106 MOUNT HOLLY RD,BURLINGTON,NJ,08016-4158,(609) 386-8400,40.0481384,-74.8434756,20.6,Night,0.0,0.0,3.0,18.8,209.0
3598,235 RIDGEDALE AVE,CEDAR KNOLLS,NJ,07927-2105,(973) 889-8646,40.8096305,-74.4572992,20.9,Night,0.0,0.0,3.0,17.0,212.0
5340,500 ROUTE 38,CHERRY HILL,NJ,08002-2954,(856) 665-5430,39.935915,-75.052286,20.5,Night,0.0,0.0,2.0,18.5,207.0
2871,2501 ROUTE 130 S,CINNAMINSON,NJ,08077-3075,(856) 303-2119,40.005741,-74.976671,20.6,Night,0.1,0.0,1.0,19.8,207.0
2582,ROUTE 513 AND I78,CLINTON,NJ,08809-0000,(908) 730-8665,40.63069,-74.91993,20.1,Night,0.0,0.0,3.0,11.0,218.0
3422,2000 CLEMENTS BRIDGE RD STE 100,DEPTFORD,NJ,08096-2011,(856) 384-3211,39.840325,-75.0919913,20.8,Night,0.0,0.0,1.0,19.0,207.0
3078,290 STATE ROUTE 18,EAST BRUNSWICK,NJ,08816-1995,(732) 387-1059,40.4589542,-74.3988439,20.9,Night,0.1,0.0,3.0,21.9,207.0
3266,839 US HIGHWAY 130,EAST WINDSOR,NJ,08520-2907,(609) 443-6159,40.2540049,-74.5532863,20.6,Night,0.1,0.0,3.0,18.4,206.0
5201,2220 STATE ROUTE 27,EDISON,NJ,08817-3314,(732) 650-1297,40.531662,-74.379535,20.8,Night,0.0,0.0,3.0,15.9,205.0
3212,6801 BLACK HORSE PIKE,EGG HBR TWP,NJ,08234-4120,(609) 415-6353,39.3968014,-74.5507686,19.4,Night,0.0,0.0,2.0,16.7,213.0
3291,40 INTERNATIONAL DR S,FLANDERS,NJ,07836-4106,(973) 347-7400,40.883099,-74.705542,19.2,Night,0.0,0.0,3.0,18.6,212.0
2294,152 ROUTE 31 NORTH,FLEMINGTON,NJ,08822-5734,(908) 788-6769,40.527983,-74.856177,21.0,Night,0.3,0.0,3.0,20.9,209.0
2090,230 STATE HIGHWAY,FRANKLIN,NJ,07416-0000,(973) 209-4242,41.140065,-74.571339,19.8,Night,0.0,0.0,3.0,14.3,192.0
3236,326 W MAIN ST,FREEHOLD,NJ,07728-2524,(732) 780-3048,40.244327,-74.293413,20.7,Night,0.1,0.0,3.0,19.2,214.0
5752,174 PASSAIC ST,GARFIELD,NJ,07026-1358,(973) 330-3550,40.8681309,-74.0984199,21.5,Night,0.0,0.0,3.0,17.8,201.0
2503,1885 STATE ROUTE 57 STE 100,HACKETTSTOWN,NJ,07840-3477,(908) 979-9342,40.817903,-74.839029,19.5,Night,0.0,0.0,3.0,11.7,198.0
2518,700 MARKETPLACE BLVD,HAMILTON,NJ,08691-2115,(609) 585-1463,40.1944085,-74.6337632,19.2,Night,0.1,0.0,3.0,8.6,202.0
5012,1750 NOTTINGHAM WAY,HAMILTON,NJ,08619-3551,(609) 438-4093,40.2343211,-74.714907,20.0,Night,0.1,0.0,3.0,11.7,198.0
2254,55 S WHITE HORSE PIKE,HAMMONTON,NJ,08037-1872,(609) 567-2700,39.643115,-74.781867,20.0,Night,0.1,0.0,3.0,20.1,209.0
2195,4900 US HIGHWAY 9,HOWELL,NJ,07731-3724,(732) 886-9100,40.1304573,-74.2269493,20.6,Night,0.0,0.0,3.0,16.4,213.0
5447,150 HARRISON AVE,KEARNY,NJ,07032-5950,(201) 955-0280,40.7475473,-74.1381368,21.5,Night,0.0,0.0,3.0,17.4,204.0
5414,580 US HIGHWAY 9,LANOKA HARBOR,NJ,08734-2210,(609) 242-4231,39.858964,-74.176151,19.9,Night,0.1,0.0,3.0,18.2,210.0
3912,461 RT 10 SUITE A100,LEDGEWOOD,NJ,07852-0000,(973) 598-4088,40.8741051,-74.6500144,19.1,Night,0.0,0.0,3.0,13.4,200.0
3469,1050 W EDGAR RD,LINDEN,NJ,07036-6422,(908) 474-9055,40.6181947,-74.2548484,21.2,Night,0.1,0.0,3.0,16.4,206.0
3830,631 RT. 9 SOUTH,LITTLE EGG HARBOR,NJ,08087-4031,(609) 296-2430,39.618556,-74.345348,19.2,Night,0.1,0.0,3.0,15.2,211.0
2841,1740 ROUTE 38,LUMBERTON,NJ,08048-2257,(609) 702-9200,39.9789682,-74.766861,20.4,Night,0.0,0.0,3.0,18.8,206.0
1921,525 ROUTE 72 W,MANAHAWKIN,NJ,08050-2821,(609) 978-8300,39.698529,-74.265896,18.8,Night,0.0,0.0,3.0,13.8,208.0
2651,PO BOX 209,MANVILLE,NJ,08835-0209,(908) 575-8997,40.5410075,-74.5875422,20.3,Night,0.2,0.0,3.0,11.7,198.0
1869,150 E ROUTE 70,MARLTON,NJ,08053-1856,(856) 983-2100,39.894102,-74.914069,21.0,Night,0.0,0.0,3.0,20.3,210.0
2108,4620 BLACK HORSE PIKE,MAYS LANDING,NJ,08330-3213,(609) 625-8200,39.4524197,-74.6533468,20.2,Night,0.0,0.0,2.0,17.0,212.0
2109,2291 N 2ND ST,MILLVILLE,NJ,08332-1305,(856) 825-4200,39.4251626,-75.0356931,19.9,Night,0.1,0.0,3.0,18.0,206.0
5944,934 ROUTE 73,MOUNT LAUREL,NJ,08054-1124,(856) 372-6130,39.932239,-74.962284,20.8,Night,0.0,0.0,3.0,19.5,210.0
5142,3575 STATE ROUTE 66,NEPTUNE,NJ,07753-2602,(732) 922-8084,40.224225,-74.08135,20.1,Night,0.0,0.0,3.0,18.0,213.0
2604,26 HAMPTON HOUSE RD,NEWTON,NJ,07860-1409,(973) 300-1859,41.0701254,-74.7387197,20.0,Night,0.0,0.0,3.0,17.9,208.0
3795,2100 88TH ST,NORTH BERGEN,NJ,07047-4709,(201) 758-2810,40.8122103,-74.0131543,21.4,Night,0.0,0.0,3.0,18.5,209.0
2003,979 ROUTE 1,NORTH BRUNSWICK,NJ,08902-2712,(732) 545-4499,40.458916,-74.469177,20.9,Night,0.1,0.0,3.0,20.3,203.0
2825,1126 US HIGHWAY 9,OLD BRIDGE,NJ,08857-2860,(732) 525-8030,40.3863648,-74.308294,21.2,Night,0.0,0.0,3.0,19.7,211.0
4153,2825 STATE ROUTE 18,OLD BRIDGE,NJ,08857-3798,(732) 955-0139,40.3944309,-74.3434105,21.3,Night,0.0,0.0,3.0,20.0,210.0
2041,709 S BROADWAY,PENNSVILLE,NJ,08070-9655,(856) 935-8200,39.613422,-75.503239,20.0,Night,0.1,0.0,2.0,19.3,204.0
2497,1300 US HIGHWAY 22,PHILLIPSBURG,NJ,08865-4108,(908) 454-3622,40.679463,-75.145387,18.6,Night,0.0,0.0,3.0,8.7,187.0
2633,1303 CENTENNIAL AVE,PISCATAWAY,NJ,08854-4321,(732) 562-1771,40.5525005,-74.4544743,20.7,Night,0.0,0.0,3.0,13.9,205.0
3337,3159 ROUTE 9 SOUTH,RIO GRANDE,NJ,08242-1012,(609) 465-2204,39.020265,-74.870815,20.5,Night,0.0,0.0,1.0,18.5,207.0
3443,48 STATE RT 23,RIVERDALE,NJ,07457-1602,(973) 835-5812,40.986098,-74.304878,19.4,Night,0.0,0.0,3.0,10.3,192.0
5178,220 ENTERPRISE DR,ROCKAWAY,NJ,07866-2157,(973) 361-6089,40.9075837,-74.5613462,19.7,Night,0.0,0.0,3.0,15.0,215.0
3562,189 US HIGHWAY 46,SADDLE BROOK,NJ,07663-6215,(201) 226-0575,40.8926943,-74.0943538,21.3,Night,0.0,0.0,3.0,16.6,202.0
3520,400 PARK PL,SECAUCUS,NJ,07094-3654,(201) 325-9280,40.795877,-74.051408,21.7,Night,0.0,0.0,3.0,18.7,208.0
4456,1 COOPERTOWN BLVD,SOMERDALE,NJ,08083-1433,(856) 545-9052,40.049514,-74.948757,20.7,Night,0.1,0.0,3.0,17.7,207.0
3159,1 TETERBORO LANDING DR,TETERBORO,NJ,07608-1120,(201) 375-4002,40.8621802,-74.0623956,21.3,Night,0.0,0.0,3.0,17.3,203.0
1844,950 ROUTE 37 W,TOMS RIVER,NJ,08755-5018,(732) 349-6000,39.993237,-74.273082,20.1,Night,0.0,0.0,3.0,16.6,214.0
1742,3501 ROUTE 42,TURNERSVILLE,NJ,08012-1752,(856) 629-3888,39.7307183,-75.034926,20.6,Night,0.2,0.0,1.0,23.0,205.0
3292,900 SPRINGFIELD RD,UNION,NJ,07083-8617,(908) 624-0644,40.6884907,-74.2989027,21.0,Night,0.3,0.0,3.0,16.4,209.0
3339,1070 W LANDIS AVE,VINELAND,NJ,08360-3422,(856) 205-9940,39.4896119,-75.0474375,19.8,Night,0.1,0.0,3.0,18.4,206.0
5111,1501 US HIGHWAY 22,WATCHUNG,NJ,07069-6507,(908) 756-1925,40.641127,-74.415795,20.5,Night,0.0,0.0,3.0,16.1,209.0
1807,265 N ROUTE 73,WEST BERLIN,NJ,08091-2500,(856) 753-8787,39.809069,-74.930798,20.8,Night,0.0,0.0,2.0,21.9,210.0
3774,ROUTE 38,WILLIAMSTOWN,NJ,08094-0000,(856) 629-2054,39.982275,-74.77819,20.8,Night,0.0,0.0,3.0,19.5,208.0
5281,360 US HIGHWAY 9 ROUTE N,WOODBRIDGE,NJ,07095-1004,(732) 826-4652,40.538289,-74.295035,20.9,Night,0.0,0.0,3.0,17.6,208.0
5476,820 COOPER ST,WOODBURY,NJ,08096-2598,(856) 686-0133,39.832492,-75.1302955,20.6,Night,0.0,0.0,2.0,19.5,208.0
1306,233 S NEW YORK AVE,ALAMOGORDO,NM,88310-6531,(575) 434-5870,32.8872474,-105.9575621,13.4,Night,0.0,0.0,0.0,8.6,112.0
5726,2401 INDIAN WELLS ROAD,ALAMOGORDO,NM,88310-0000,(575) 812-7045,32.9164557,-105.9307031,14.2,Night,0.0,0.0,0.0,14.4,127.0
824,8000 ACADEMY RD NE,ALBUQUERQUE,NM,87111-1159,(505) 856-5274,35.1447519,-106.5499907,7.9,Night,0.0,0.0,0.0,8.9,140.0
835,400 EUBANK BLVD NE,ALBUQUERQUE,NM,87123-2758,(505) 293-8878,35.0796007,-106.5299646,7.4,Night,0.0,0.0,0.0,11.8,140.0
850,2701 CARLISLE BLVD NE,ALBUQUERQUE,NM,87110-2830,(505) 884-6650,35.1119283,-106.6081495,6.1,Night,0.0,0.0,0.0,7.2,63.0
1397,10224 COORS BYP NW,ALBUQUERQUE,NM,87114-4398,(505) 897-1228,35.208447,-106.6584301,4.8,Night,0.0,0.0,0.0,9.4,7.0
2451,4700 CUTLER AVE NE,ALBUQUERQUE,NM,87110-4096,(505) 346-0702,35.104694,-106.592207,6.0,Night,0.0,0.0,0.0,7.2,63.0
2924,2550 COORS BLDV. NW,ALBUQUERQUE,NM,87120-2123,(505) 352-1870,,,,,,,,,
3317,8511 GOLF COURSE RD NW,ALBUQUERQUE,NM,87114-4896,(505) 792-3676,35.180523,-106.689836,5.9,Night,0.0,0.0,0.0,7.6,355.0
3385,9600 SAGE RD SW,ALBUQUERQUE,NM,87121-6803,(505) 831-3618,35.0546091,-106.7393532,5.8,Night,0.0,0.0,0.0,8.1,45.0
3512,11018 MONTGOMERY BLVD NE,ALBUQUERQUE,NM,87111-3962,(505) 600-4183,35.1296715,-106.5167686,8.3,Night,0.0,0.0,0.0,13.6,148.0
4676,1820 UNSER BLVD NW,ALBUQUERQUE,NM,87120-3933,(505) 600-4293,35.1030627,-106.7279602,7.1,Night,0.0,0.0,0.0,4.1,38.0
5430,3500 COORS BLVD SW,ALBUQUERQUE,NM,87121-5274,(505) 877-2254,35.0774812,-106.7116598,4.2,Night,0.0,0.0,0.0,9.4,50.0
5491,2266 WYOMING BLVD NE,ALBUQUERQUE,NM,87112-2620,(505) 323-4131,35.1070847,-106.5486826,7.6,Night,0.0,0.0,0.0,9.2,149.0
5675,11001 MENAUL BLVD NE,ALBUQUERQUE,NM,87112-2432,(505) 200-3435,35.1094328,-106.517665,9.9,Night,0.0,0.0,0.0,15.3,141.0
3427,604 N 26TH ST,ARTESIA,NM,88210-3723,(575) 746-2184,32.8483458,-104.4270957,10.1,Night,0.0,0.0,1.0,7.0,201.0
1414,1 I 25 BYP,BELEN,NM,87002-8170,(505) 864-9114,34.6966682,-106.7678681,5.2,Night,0.0,0.0,0.0,2.5,180.0
3731,460 NM HIGHWAY 528,BERNALILLO,NM,87004-6633,(505) 771-4867,35.319441,-106.575355,5.6,Night,0.0,0.0,0.0,10.5,356.0
868,2401 S CANAL ST,CARLSBAD,NM,88220-6523,(575) 885-0727,32.3936225,-104.2224146,10.4,Night,0.0,0.0,3.0,8.3,108.0
821,3728 N PRINCE ST,CLOVIS,NM,88101-9744,(575) 769-2261,34.4382372,-103.2003425,7.8,Night,0.0,0.0,0.0,15.4,196.0
5166,1021 E PINE ST,DEMING,NM,88030-7009,(575) 546-6045,32.2705066,-107.746714,10.1,Night,0.0,0.0,0.0,6.4,16.0
4201,66 STATE ROAD 344,EDGEWOOD,NM,87015-6849,(505) 286-3043,35.074655,-106.191545,2.4,Night,0.0,0.0,0.0,10.9,96.0
2656,PO BOX 3007,FAIRVIEW,NM,87533-3007,(505) 747-0414,36.0097454,-106.0644277,4.4,Night,0.0,0.0,0.0,12.6,153.0
826,4600 E MAIN ST,FARMINGTON,NM,87402-8663,(505) 326-1100,36.7681534,-108.1514883,2.7,Night,0.0,0.0,0.0,8.9,69.0
3428,1400 W MAIN ST,FARMINGTON,NM,87401-3836,(505) 327-1243,36.7320075,-108.2261019,2.6,Night,0.0,0.0,0.0,10.1,94.0
906,1650 W MALONEY AVE,GALLUP,NM,87301-3305,(505) 722-2296,35.5287427,-108.770204,2.2,Night,0.0,0.0,0.0,4.4,145.0
2652,1000 ROBERT RD,GRANTS,NM,87020-4012,(505) 285-3350,35.142579,-107.840525,4.0,Night,0.0,0.0,0.0,1.8,259.0
549,3800 N LOVINGTON HWY,HOBBS,NM,88240-1033,(575) 492-0120,32.7435425,-103.1605434,9.5,Night,0.0,0.0,2.0,10.1,117.0
806,571 WALTON BLVD,LAS CRUCES,NM,88001-8449,(575) 525-1222,32.3147388,-106.7500055,12.8,Night,0.0,0.0,0.0,2.9,120.0
4601,NEC HWY 7 & ROADRUNNER,LAS CRUCES,NM,88011-0000,(575) 680-3772,32.335929,-106.75047,13.5,Night,0.0,0.0,0.0,5.5,113.0
5155,1550 S VALLEY DR,LAS CRUCES,NM,88005-3110,(575) 523-4924,32.2885836,-106.7850268,10.0,Night,0.0,0.0,0.0,5.6,333.0
5782,150 N SONOMA RANCH BLVD,LAS CRUCES,NM,88011-1608,(575) 323-6098,32.33887,-106.73405,14.2,Night,0.0,0.0,0.0,8.2,128.0
1380,2609 7TH ST,LAS VEGAS,NM,87701-4863,(505) 425-5242,35.6195539,-105.2274838,5.2,Night,0.0,0.0,0.0,12.5,252.0
3596,2250 MAIN ST NW,LOS LUNAS,NM,87031-4807,(505) 565-4611,34.8172364,-106.7631762,6.7,Night,0.0,0.0,0.0,5.2,326.0
2653,1604 E SPRUCE ST,PORTALES,NM,88130-9489,(575) 359-3420,34.1981218,-103.319085,7.3,Night,0.0,0.0,0.0,8.9,130.0
3517,1115 NM HIGHWAY 528 SE,RIO RANCHO,NM,87124-0000,(505) 600-4052,35.242107,-106.65579,5.2,Night,0.0,0.0,0.0,9.8,354.0
3732,901 UNSER BLVD SE,RIO RANCHO,NM,87124-6365,(505) 962-9227,35.2422599,-106.6992476,5.6,Night,0.0,0.0,0.0,10.5,338.0
611,4500 N MAIN ST STE A,ROSWELL,NM,88201-0305,(575) 623-2062,33.4505061,-104.5265935,9.3,Night,0.0,0.0,0.0,5.0,180.0
851,26180 US HIGHWAY 70,RUIDOSO DOWNS,NM,88346-9596,(575) 378-8050,33.33575,-105.581019,6.4,Night,0.0,0.0,0.0,6.9,264.0
829,3251 CERRILLOS RD,SANTA FE,NM,87507-2924,(505) 474-4727,35.6524842,-105.9998711,3.6,Night,0.0,0.0,0.0,11.9,104.0
3423,5701 HERRERA DR,SANTA FE,NM,87507-2677,(505) 424-9304,35.6196267,-106.0319513,3.7,Night,0.0,0.0,0.0,14.0,102.0
1357,2501 HIGHWAY 180 E,SILVER CITY,NM,88061-7791,(575) 538-2222,32.787507,-108.253321,8.6,Night,0.0,0.0,0.0,7.3,33.0
5492,700 6TH ST N,SOCORRO,NM,87801-4242,(575) 838-1415,34.0631103,-106.8910808,8.8,Night,0.0,0.0,0.0,10.8,184.0
873,926 PASEO DEL PUEBLO SUR,TAOS,NM,87571-5966,(575) 758-1136,36.3873849,-105.5863271,3.3,Night,0.0,0.0,0.0,3.1,126.0
4341,2001 HR ASHBAUGH DR,TRUTH OR CONSEQUENCES,NM,87901-3715,(575) 894-0343,33.225026,-107.206873,9.7,Night,0.0,0.0,0.0,5.4,160.0
1648,3770 US HIGHWAY 395 S,CARSON CITY,NV,89705-6898,(775) 267-2158,39.113185,-119.773244,3.3,Night,0.0,0.0,0.0,3.6,6.0
3408,3200 MARKET ST,CARSON CITY,NV,89706-7984,(775) 883-6415,39.1869974,-119.757581,3.9,Night,0.0,0.0,0.0,15.2,355.0
2402,2944 MOUNTAIN CITY HWY,ELKO,NV,89801-4495,(775) 778-6778,40.8403422,-115.7925712,0.2,Night,1.3,0.0,0.0,8.4,301.0
2453,2333 RENO HWY,FALLON,NV,89406-6385,(775) 428-1700,39.4756205,-118.8066075,3.0,Night,0.0,0.0,0.0,7.4,129.0
4370,1550 NEWLANDS DR E,FERNLEY,NV,89408-8910,(775) 575-4832,39.611011,-119.192342,3.5,Night,0.0,0.0,0.0,7.2,96.0
5864,1511 GRANT ST,GARDNERVILLE,NV,89410-7824,(775) 552-3436,38.939606,-119.686605,3.1,Night,0.0,0.0,0.0,7.1,66.0
2050,300 E LAKE MEAD PKWY,HENDERSON,NV,89015-5576,(702) 564-3665,36.043656,-114.976741,11.4,Night,0.0,0.0,0.0,8.0,275.0
2838,540 MARKS ST,HENDERSON,NV,89014-6654,(702) 547-0551,36.0603801,-115.0332557,11.3,Night,0.0,0.0,0.0,7.9,267.0
3354,1401 AMERICAN PACIFIC DR,HENDERSON,NV,89074-7401,(702) 564-9444,36.0405023,-115.0482821,11.9,Night,0.0,0.0,0.0,11.1,257.0
1559,201 N NELLIS BLVD,LAS VEGAS,NV,89110-5321,(702) 452-9998,36.1655712,-115.0638176,12.4,Night,0.0,0.0,0.0,8.6,338.0
1560,6005 S EASTERN AVE,LAS VEGAS,NV,89119-3135,(702) 451-8900,36.0804167,-115.1222651,11.7,Night,0.0,0.0,0.0,8.3,326.0
1584,3615 S RAINBOW BLVD,LAS VEGAS,NV,89103-1057,(702) 367-9999,36.123254,-115.2466207,11.8,Night,0.0,0.0,0.0,7.2,323.0
1838,3041 N RAINBOW BLVD,LAS VEGAS,NV,89108-4577,(702) 656-0199,36.2153196,-115.2455058,12.2,Night,0.0,0.0,0.0,10.3,234.0
2483,6973 BLUE DIAMOND RD,LAS VEGAS,NV,89178-9213,(702) 408-3595,36.0223289,-115.2445643,11.4,Night,0.0,0.0,0.0,13.0,294.0
2593,2310 E SERENE AVE,LAS VEGAS,NV,89123-3248,(702) 270-7831,36.0228915,-115.1241884,10.7,Night,0.0,0.0,0.0,9.4,263.0
2884,8060 W TROPICAL PKWY,LAS VEGAS,NV,89149-4528,(702) 839-3620,36.2723883,-115.2716095,12.2,Night,0.0,0.0,0.0,11.9,235.0
3350,5198 BOULDER HWY,LAS VEGAS,NV,89122-6002,(702) 434-5595,36.1080043,-115.0629841,11.9,Night,0.0,0.0,0.0,8.9,297.0
3351,6464 N DECATUR BLVD,LAS VEGAS,NV,89131-2959,(702) 515-7050,36.2781904,-115.2024764,11.0,Night,0.0,0.0,0.0,9.9,251.0
3355,1400 S LAMB BLVD,LAS VEGAS,NV,89104-5416,(702) 431-1180,36.154752,-115.082159,12.2,Night,0.0,0.0,0.0,8.7,322.0
3356,7445 S EASTERN AVE,LAS VEGAS,NV,89123-1538,(702) 614-8122,36.0550482,-115.1198876,11.4,Night,0.0,0.0,0.0,8.9,297.0
3473,4505 W CHARLESTON BLVD,LAS VEGAS,NV,89102-1501,(702) 258-4540,36.1557648,-115.2009349,11.9,Night,0.0,0.0,0.0,2.2,9.0
3655,10440 W CHEYENNE AVE,LAS VEGAS,NV,89129-8712,(702) 233-9520,36.2208286,-115.3244892,12.1,Night,0.0,0.0,0.0,7.7,259.0
3788,6310 W CHARLESTON BLVD,LAS VEGAS,NV,89146-1128,(702) 870-1220,36.1603191,-115.2318445,12.0,Night,0.0,0.0,0.0,3.7,299.0
4356,7200 ARROYO CROSSING PKWY,LAS VEGAS,NV,89113-4058,(702) 270-6003,36.0650385,-115.2490577,11.6,Night,0.0,0.0,0.0,12.2,298.0
4557,3075 E TROPICANA AVE,LAS VEGAS,NV,89121-7311,(702) 433-4267,36.0980718,-115.1083077,11.8,Night,0.0,0.0,0.0,8.7,312.0
5070,5200 S FORT APACHE RD,LAS VEGAS,NV,89148-1722,(702) 367-4001,36.0941424,-115.2939086,11.7,Night,0.0,0.0,0.0,12.0,291.0
5258,5850 W CRAIG RD,LAS VEGAS,NV,89130-2558,(702) 395-1222,36.2406133,-115.2240478,11.5,Night,0.0,0.0,0.0,11.0,232.0
5259,6151 W LAKE MEAD BLVD,LAS VEGAS,NV,89108-2660,(702) 631-1962,36.1943368,-115.2259201,11.9,Night,0.0,0.0,0.0,8.1,225.0
5269,490 E SILVERADO RANCH BLVD,LAS VEGAS,NV,89183-6290,(702) 263-7550,36.014686,-115.1526223,11.0,Night,0.0,0.0,0.0,9.3,283.0
5423,6570 E LAKE MEAD BLVD,LAS VEGAS,NV,89156-7044,(702) 437-3590,36.1964919,-115.0289806,13.8,Night,0.0,0.0,0.0,13.7,88.0
3847,1120 W PIONEER BLVD,MESQUITE,NV,89027-8864,(702) 346-0208,36.8048544,-114.1061306,10.6,Night,0.0,0.0,0.0,8.8,351.0
2592,1807 W CRAIG RD,NORTH LAS VEGAS,NV,89032-0217,(702) 633-6521,36.236237,-115.1679461,11.7,Night,0.0,0.0,0.0,6.4,254.0
3728,3950 W LAKE MEAD BLVD,NORTH LAS VEGAS,NV,89032-4895,(702) 631-0421,36.2010255,-115.1923733,11.9,Night,0.0,0.0,0.0,4.9,216.0
4339,5940 LOSEE RD,NORTH LAS VEGAS,NV,89081-6591,(702) 639-1202,36.2677688,-115.1168192,12.5,Night,0.0,0.0,0.0,4.5,346.0
5306,5545 SIMMONS ST,NORTH LAS VEGAS,NV,89031-9005,(702) 646-5759,36.260354,-115.1817042,11.4,Night,0.0,0.0,0.0,9.4,270.0
5101,300 S HIGHWAY 160,PAHRUMP,NV,89048-2132,(775) 537-1400,36.211009,-115.987684,12.2,Night,0.0,0.0,0.0,3.3,131.0
2106,2425 E 2ND ST,RENO,NV,89502-1218,(775) 359-8200,39.5290691,-119.7816532,2.6,Night,0.0,0.0,0.0,1.8,259.0
2189,4855 KIETZKE LN,RENO,NV,89509-6549,(775) 829-8088,39.4804287,-119.798926,2.7,Night,0.0,0.0,0.0,8.2,221.0
3254,5260 W 7TH ST,RENO,NV,89523-2332,(775) 624-2000,39.5361609,-119.8674032,2.8,Night,0.0,0.0,0.0,3.9,248.0
3277,155 DAMONTE RANCH PKWY,RENO,NV,89521-2990,(775) 853-6400,39.4232071,-119.7574707,2.8,Night,0.0,0.0,0.0,7.6,267.0
4239,250 VISTA KNOLL PKWY,RENO,NV,89506-5594,(775) 332-0308,39.573515,-119.829988,2.7,Night,0.0,0.0,0.0,7.6,301.0
3729,5065 PYRAMID WAY,SPARKS,NV,89436-7703,(775) 425-9300,39.5850495,-119.7459106,2.5,Night,0.0,0.0,0.0,3.4,32.0
2617,3010 POTATO RD,WINNEMUCCA,NV,89445-3665,(775) 625-3777,40.9533402,-117.745789,1.0,Night,0.1,0.0,0.0,3.4,198.0
2152,141 WASHINGTON AVE EXTENSION,ALBANY,NY,12205-0000,(518) 869-4694,42.6941704,-73.8467943,21.6,Night,1.5,0.0,3.0,18.0,178.0
3607,13858 STATE ROUTE 31,ALBION,NY,14411-9362,(585) 589-0608,43.2341416,-78.2259742,19.5,Night,1.3,0.0,3.0,29.8,235.0
2210,3290 SHERIDAN DR,AMHERST,NY,14226-1422,(716) 691-0195,42.9827553,-78.8107949,18.2,Night,0.1,0.0,3.0,29.9,236.0
2146,101 SANFORD FARMS SHOPPING CTR,AMSTERDAM,NY,12010-7535,(518) 843-6890,42.9615442,-74.1839746,18.7,Night,4.3,0.0,0.0,8.6,237.0
1830,297 GRANT AVE,AUBURN,NY,13021-1407,(315) 255-0532,42.9540557,-76.5481471,21.3,Night,4.7,0.0,3.0,23.7,242.0
2088,4133 VETERANS MEMORIAL DR,BATAVIA,NY,14020-1253,(585) 345-1050,43.0139754,-78.2072982,18.5,Night,1.4,0.0,3.0,27.7,238.0
1993,6265 BROCKPORT SPENCERPORT RD,BROCKPORT,NY,14420-2605,(585) 637-6331,43.1968956,-77.927773,20.4,Night,0.1,0.0,3.0,26.5,236.0
2581,5399 W GENESEE ST,CAMILLUS,NY,13031-2265,(315) 487-0121,43.0378935,-76.2728776,21.8,Night,2.7,0.0,3.0,24.4,239.0
1673,4238 RECREATION DR,CANANDAIGUA,NY,14424-2235,(585) 394-5300,42.8764426,-77.240565,19.4,Night,4.3,0.0,3.0,22.5,212.0
2351,PO BOX 430,CATSKILL,NY,12414-0430,(518) 943-9423,42.2173102,-73.8645734,21.1,Night,0.0,0.0,3.0,19.1,182.0
2286,161 CENTEREACH MALL,CENTEREACH,NY,11720-2750,(631) 467-4825,40.8597526,-73.0825542,18.5,Night,0.2,0.0,0.0,15.1,205.0
2911,3018 EAST AVE,CENTRAL SQUARE,NY,13036-2615,(315) 668-0400,43.2914034,-76.1273483,20.6,Night,3.8,0.0,3.0,18.1,226.0
2586,2500 WALDEN AVE,CHEEKTOWAGA,NY,14225-4940,(716) 896-3669,42.9099391,-78.7428586,18.0,Night,0.1,0.0,2.0,31.3,241.0
5242,8064 BREWERETON ROAD,CICERO,NY,13039-9584,(315) 698-0130,43.160549,-76.120626,22.2,Night,3.5,0.0,3.0,25.6,238.0
2844,PO BOX 1547,CLIFTON PARK,NY,12065-0807,(518) 373-8457,42.8631868,-73.7812103,20.0,Night,2.3,0.0,0.0,17.5,172.0
2135,139 MERCHANT PL,COBLESKILL,NY,12043-5715,(518) 234-1090,42.6828,-74.4558664,20.1,Night,2.3,0.0,3.0,16.8,223.0
5202,85 CROOKED HILL RD,COMMACK,NY,11725-5407,(631) 864-0806,40.8117205,-73.2888441,19.0,Night,0.1,0.0,3.0,19.0,209.0
1781,819 BENNIE RD,CORTLAND,NY,13045-8964,(607) 756-1776,42.568832,-76.2173007,20.2,Night,1.0,0.0,3.0,20.0,198.0
1940,279 TROY RD,EAST GREENBUSH,NY,12144-9499,(518) 283-3055,42.6429533,-73.699698,20.8,Night,0.4,0.0,3.0,16.3,158.0
2916,2465 HEMPSTEAD TPKE,EAST MEADOW,NY,11554-2028,(516) 579-3307,40.7244566,-73.5445462,18.9,Night,0.0,0.0,3.0,14.0,206.0
2915,3990 NESCONSET HWY,EAST SETAUKET,NY,11733-3334,(631) 474-3287,40.9035997,-73.0781901,18.7,Night,0.4,0.0,0.0,17.2,206.0
2166,6438 BASILE ROWE,EAST SYRACUSE,NY,13057-3900,(315) 434-9873,43.0608795,-76.0601089,22.8,Night,3.9,0.0,3.0,10.3,258.0
5497,25737 US ROUTE 11,EVANS MILLS,NY,13637-3221,(315) 629-2124,44.040724,-75.84029,20.1,Night,2.8,0.0,3.0,24.4,236.0
5295,965 BROADHOLLOW RD,FARMINGDALE,NY,11735-3906,(631) 752-8768,40.7263262,-73.4209131,18.3,Night,0.0,0.0,2.0,13.5,209.0
1810,26 W MERRITT BLVD,FISHKILL,NY,12524-2243,(845) 896-8192,41.531216,-73.8975749,21.6,Night,0.0,0.0,1.0,17.6,191.0
1949,10401 BENNETT RD,FREDONIA,NY,14063-1402,(716) 679-3150,42.4533355,-79.3092849,17.0,Night,4.4,0.0,53.0,28.6,236.0
3332,1818 STATE ROUTE 3,FULTON,NY,13069-1565,(315) 598-1773,43.325873,-76.446024,21.6,Night,4.8,0.0,3.0,19.3,217.0
1966,4235 VETERAN DR,GENESEO,NY,14454-9433,(585) 243-4090,42.803065,-77.7879179,19.7,Night,0.8,0.0,51.0,20.3,210.0
1731,990 STATE ROUTE 5 AND 20,GENEVA,NY,14456-9543,(315) 781-3253,42.858517,-77.026069,19.6,Night,1.5,0.0,3.0,25.3,220.0
3583,311 ROUTE 9W,GLENMONT,NY,12077-2909,(518) 432-6120,42.6059697,-73.7905787,21.9,Night,0.0,0.0,3.0,18.4,174.0
2874,200 DUTCH MEADOWS LN,GLENVILLE,NY,12302-3546,(518) 344-7035,42.8418681,-73.9443108,19.7,Night,3.4,0.0,0.0,12.9,162.0
1806,329 S KINGSBORO AVE EXT,GLOVERSVILLE,NY,12078-4611,(518) 725-2403,43.034098,-74.343657,17.7,Night,3.1,0.0,1.0,9.7,228.0
1610,100 ELMRIDGE CENTER DR,GREECE,NY,14626-3459,(585) 227-0720,43.253608,-77.732838,20.9,Night,0.1,0.0,3.0,22.4,237.0
5282,3800 DEWEY AVE,GREECE,NY,14616-2529,(585) 957-7382,43.2396942,-77.6436712,20.9,Night,0.1,0.0,3.0,23.7,237.0
2405,5360 SOUTHWESTERN BLVD,HAMBURG,NY,14075-3596,(716) 646-0682,42.7426831,-78.8717874,17.3,Night,0.0,0.0,3.0,33.0,238.0
2285,103 N CAROLINE ST,HERKIMER,NY,13350-1716,(315) 717-0023,43.020688,-74.9983155,20.7,Night,3.2,0.0,3.0,16.2,212.0
2326,1000 STATE ROUTE 36,HORNELL,NY,14843-9323,(607) 324-7019,42.319185,-77.660477,18.5,Night,2.0,0.0,55.0,11.9,205.0
1976,1400 COUNTY RD 64,HORSEHEADS,NY,14845-2297,(607) 739-1714,42.188314,-76.803839,19.3,Night,0.0,0.0,3.0,8.0,172.0
2097,460 FAIRVIEW AVE,HUDSON,NY,12534-1018,(518) 822-0160,42.2780013,-73.7500006,20.2,Night,0.0,0.0,2.0,14.5,161.0
2917,1850 VETERANS HWY,ISLANDIA,NY,11749-1513,(631) 851-0468,40.8006267,-73.1785338,18.5,Night,0.1,0.0,3.0,17.1,208.0
5240,135 FAIRGROUNDS MEMORIAL PKWY,ITHACA,NY,14850-5362,(607) 277-4510,42.4275341,-76.5139729,20.6,Night,0.9,0.0,3.0,3.8,197.0
5732,2 GANNETT DR,JOHNSON CITY,NY,13790-2260,(607) 240-5040,42.1152197,-75.946266,20.1,Night,0.6,0.0,3.0,12.6,200.0
2504,601 FRANK STOTTILE BLVD,KINGSTON,NY,12401-1550,(845) 336-4159,41.970104,-73.984996,17.7,Night,0.0,0.0,1.0,8.7,173.0
1973,350 E FAIRMOUNT AVE,LAKEWOOD,NY,14750-2134,(716) 763-0945,42.0968138,-79.2999945,17.9,Night,1.3,0.0,3.0,21.7,227.0
5027,4975 TRANSIT RD,LANCASTER,NY,14043-4617,(716) 206-3050,42.8832401,-78.6936345,18.0,Night,0.3,0.0,51.0,29.8,238.0
1997,579 TROY-SCHENECTADY ROAD,LATHAM,NY,12110,(518) 783-4086,42.7572896,-73.7616478,20.3,Night,2.4,0.0,3.0,16.1,156.0
4184,3335 HEMPSTEAD TPKE,LEVITTOWN,NY,11756-1310,(516) 490-0438,40.7264216,-73.5128654,18.7,Night,0.1,0.0,3.0,14.2,207.0
1831,8770 DELL CENTER DR,LIVERPOOL,NY,13090-8700,(315) 622-5401,43.189237,-76.2425509,22.4,Night,5.9,0.0,3.0,27.9,232.0
2107,5735 SOUTH TRANSIT ROAD,LOCKPORT,NY,14094-5864,(716) 438-2404,43.147323,-78.6929604,18.5,Night,0.7,0.0,3.0,28.9,231.0
5498,7155 E STATE ST,LOWVILLE,NY,13367-2412,(315) 376-7030,43.7936574,-75.4821392,18.9,Night,3.8,0.0,3.0,8.8,192.0
3842,425 STATE ROUTE 31,MACEDON,NY,14502-9108,(315) 986-1584,43.0633173,-77.2479406,21.1,Night,1.3,0.0,3.0,22.3,214.0
3334,3222 STATE ROUTE 11,MALONE,NY,12953-4709,(518) 483-5968,44.8445868,-74.3298947,20.3,Night,4.8,0.0,3.0,29.5,224.0
1946,43 STEPHENVILLE ST,MASSENA,NY,13662-2705,(315) 769-1072,44.9221694,-74.8778347,19.4,Night,0.7,0.0,3.0,29.9,234.0
2156,750 MIDDLE COUNTRY RD,MIDDLE ISLAND,NY,11953-2542,(631) 924-0081,40.8796672,-72.9477787,18.7,Night,0.0,0.0,0.0,17.9,210.0
1959,470 ROUTE 211 E,MIDDLETOWN,NY,10940-2245,(845) 342-0222,41.4553885,-74.3787467,18.7,Night,0.3,0.0,3.0,17.7,207.0
2531,3133 E MAIN ST,MOHEGAN LAKE,NY,10547-1521,(914) 526-1100,41.3105797,-73.8668394,20.0,Night,0.2,0.0,3.0,13.6,192.0
2637,288 LARKIN DR,MONROE,NY,10950-4911,(845) 783-3505,41.3171112,-74.1495203,20.0,Night,0.0,0.0,3.0,13.0,199.0
2547,41 ANAWANA LAKE RD,MONTICELLO,NY,12701-3206,(845) 796-7202,41.673149,-74.680362,18.2,Night,0.0,0.0,0.0,15.8,215.0
4570,7500 ROUTE 209,NAPANOCH,NY,12458-0000,(845) 647-2671,41.756284,-74.360925,19.6,Night,0.0,0.0,1.0,9.5,241.0
1677,4765 COMMERCIAL DR,NEW HARTFORD,NY,13413-6211,(315) 736-4932,43.0960246,-75.3126461,21.8,Night,4.4,0.0,3.0,19.9,215.0
1813,6788 STATE ROUTE 31 E,NEWARK,NY,14513-9232,(315) 331-5081,43.055611,-77.054936,21.1,Night,1.4,0.0,3.0,27.6,211.0
2104,1201 ROUTE 300,NEWBURGH,NY,12550-5005,(845) 567-6007,41.5188049,-74.0691108,19.8,Night,0.1,0.0,0.0,16.6,214.0
1909,1540 MILITARY RD,NIAGARA FALLS,NY,14304-4704,(716) 298-4484,43.0932423,-78.9712642,18.7,Night,0.0,0.0,3.0,28.1,230.0
4597,886 NIAGARA FALLS BLVD,NORTH TONAWANDA,NY,14120-2006,(716) 243-4138,43.0559061,-78.8429935,18.0,Night,0.1,0.0,3.0,28.3,233.0
2120,5396 STATE HIGHWAY 12,NORWICH,NY,13815-3716,(607) 334-5553,42.4971163,-75.5274677,17.6,Night,1.7,0.0,3.0,9.3,196.0
2092,3000 FORD STREET EXT,OGDENSBURG,NY,13669-4480,(315) 394-8990,44.706804,-75.461431,18.8,Night,0.9,0.0,3.0,21.8,231.0
2159,1869 PLAZA DR,OLEAN,NY,14760-1864,(716) 373-2781,42.0803357,-78.467864,18.3,Night,2.1,0.0,3.0,18.5,233.0
2444,2024 GENESEE ST,ONEIDA,NY,13421-2680,(315) 361-1037,43.0784479,-75.6914121,22.3,Night,4.0,0.0,3.0,11.2,225.0
2262,5054 STATE HIGHWAY 23,ONEONTA,NY,13820-3506,(607) 431-9557,42.4474536,-75.0391226,19.7,Night,3.0,0.0,3.0,21.1,205.0
1926,341 STATE ROUTE 104,OSWEGO,NY,13126-2911,(315) 342-6210,43.4643424,-76.4788645,21.8,Night,4.2,0.0,3.0,26.8,222.0
2992,3217 SILVERBACK LN,PAINTED POST,NY,14870-8911,(607) 937-9627,42.1555666,-77.1069315,18.6,Night,1.3,0.0,3.0,4.9,253.0
1994,25 CONSUMER SQ,PLATTSBURGH,NY,12901-6508,(518) 561-0195,44.6920164,-73.4870167,18.5,Night,0.3,0.0,3.0,9.3,208.0
3329,7494 US HIGHWAY 11,POTSDAM,NY,13676-3577,(315) 268-6900,44.665277,-75.02754,19.6,Night,1.1,0.0,3.0,26.0,233.0
2116,891 ROUTE 9,QUEENSBURY,NY,12804-1744,(518) 793-0309,43.364035,-73.623176,17.8,Night,1.8,0.0,3.0,10.4,178.0
4403,24 QUAKER RIDGE BLVD,QUEENSBURY,NY,12804-1556,(518) 746-4155,43.3197932,-73.612331,18.0,Night,1.1,0.0,3.0,9.5,169.0
2906,1890 OLD COUNTRY RD,RIVERHEAD,NY,11901-4453,(631) 369-1041,40.9251801,-72.712146,18.6,Night,0.1,0.0,1.0,17.8,216.0
1619,1200 MARKETPLACE DR,ROCHESTER,NY,14623-6002,(585) 292-6000,43.08065,-77.6226756,20.7,Night,1.2,0.0,3.0,26.1,242.0
2859,2150 CHILI AVE,ROCHESTER,NY,14624-3453,(585) 429-9640,43.1337585,-77.6889806,20.3,Night,1.1,0.0,3.0,26.2,243.0
3280,1490 HUDSON AVE,ROCHESTER,NY,14621-1701,(585) 266-2000,43.1944266,-77.5969288,20.6,Night,0.2,0.0,3.0,23.7,242.0
2234,5815 ROME TABERG RD,ROME,NY,13440-1759,(315) 338-7900,43.2292798,-75.4929818,21.7,Night,6.3,0.0,3.0,9.4,238.0
2056,16 OLD GICK RD,SARATOGA SPRINGS,NY,12866-9452,(518) 581-8035,43.1044876,-73.7493474,17.0,Night,1.3,0.0,0.0,8.4,187.0
2264,1320 ALTAMONT AVE,SCHENECTADY,NY,12303-2924,(518) 355-2596,42.7856035,-73.9417292,21.0,Night,4.6,0.0,1.0,12.4,154.0
2164,317 S CASCADE DR,SPRINGVILLE,NY,14141-9108,(716) 592-1460,42.500564,-78.693913,17.7,Night,2.8,0.0,3.0,19.9,250.0
2905,250 ROUTE 59,SUFFERN,NY,10901-5315,(845) 368-4705,41.112428,-74.115936,19.2,Night,0.0,0.0,3.0,12.5,219.0
2424,1134 WICKER ST,TICONDEROGA,NY,12883-3103,(518) 585-3060,43.8570136,-73.4332549,20.7,Night,2.4,0.0,3.0,16.2,167.0
2370,760 HOOSICK RD,TROY,NY,12180-6697,(518) 279-0685,42.7457318,-73.6387872,20.2,Night,5.9,0.0,1.0,19.9,167.0
2583,1123 JERUSALEM AVE,UNIONDALE,NY,11553-3004,(516) 505-1508,40.696503,-73.5779528,19.7,Night,0.0,0.0,3.0,17.2,206.0
2093,710 HORATIO ST,UTICA,NY,13502-1461,(315) 738-1155,43.1225139,-75.2257356,20.3,Night,9.1,0.0,3.0,7.9,219.0
5293,77 GREEN ACRES RD,VALLEY STREAM,NY,11581-1008,(516) 887-0127,40.6611007,-73.7267317,20.0,Night,0.0,0.0,3.0,15.5,205.0
1835,2405 VESTAL PKWY E,VESTAL,NY,13850-2018,(607) 798-1011,42.0955211,-76.0132391,21.0,Night,1.8,0.0,3.0,21.8,202.0
2785,441 COMMERCE DR,VICTOR,NY,14564-9644,(585) 398-6038,43.0158476,-77.4362803,20.1,Night,1.9,0.0,51.0,22.7,226.0
2043,2348 ROUTE 19 N,WARSAW,NY,14569-9356,(585) 786-0700,42.772944,-78.124417,18.2,Night,1.7,0.0,3.0,19.5,242.0
1705,1860 N ROAD,WATERLOO,NY,13165-4175,(315) 539-2560,42.9098137,-76.8428763,21.2,Night,1.7,0.0,3.0,27.0,225.0
1871,20823 STATE ROUTE 3,WATERTOWN,NY,13601-5577,(315) 786-0145,43.9765317,-75.9589442,19.6,Night,1.1,0.0,3.0,25.4,235.0
3221,515 E 4TH ST,WATKINS GLEN,NY,14891-1218,(607) 535-3108,42.382398,-76.867538,21.0,Night,0.5,0.0,3.0,8.6,147.0
1744,1990 BRANDT POINT DRIVE,WEBSTER,NY,14580-1959,(585) 787-1370,43.1924273,-77.4969206,20.9,Night,0.2,0.0,3.0,24.8,237.0
3420,1220 OLD COUNTRY RD,WESTBURY,NY,11590-5624,(516) 794-7280,40.742842,-73.601467,18.7,Night,0.1,0.0,3.0,13.4,207.0
2355,5033 TRANSIT RD,WILLIAMSVILLE,NY,14221-4132,(716) 565-0250,42.941226,-78.696936,18.2,Night,0.2,0.0,3.0,31.2,239.0
8331,901 BOULEVARD EAST,YAPHANK,NY,11980-0000,(631) 729-4039,40.810238,-72.918301,18.0,Night,0.1,0.0,2.0,18.5,217.0
1911,2887 S ARLINGTON RD,AKRON,OH,44312-4715,(330) 645-9556,40.9933039,-81.4885633,16.7,Night,0.0,0.0,3.0,24.8,237.0
2541,2700 W STATE ST,ALLIANCE,OH,44601-5611,(330) 821-0026,40.9000248,-81.1608425,17.3,Night,0.4,0.0,3.0,27.0,236.0
3342,1815 E OHIO PIKE,AMELIA,OH,45102-2380,(513) 797-5700,39.0151078,-84.1988878,15.9,Night,1.1,0.0,3.0,17.3,271.0
1448,1996 E MAIN ST,ASHLAND,OH,44805-8944,(419) 281-9537,40.8625662,-82.2718188,16.2,Night,0.0,0.0,3.0,27.9,263.0
2359,3551 N RIDGE RD E,ASHTABULA,OH,44004-4313,(440) 998-4000,41.8838873,-80.7509485,18.7,Night,0.5,0.0,3.0,21.4,226.0
3486,929 E STATE ST,ATHENS,OH,45701-2117,(740) 594-3398,39.3361649,-82.067689,18.2,Night,0.3,0.0,3.0,17.3,247.0
3250,7235 MARKET PLACE DR,AURORA,OH,44202-8758,(330) 562-0000,41.3499637,-81.390739,17.3,Night,0.1,0.0,3.0,24.5,234.0
2063,6001 MAHONING AVE,AUSTINTOWN,OH,44515-2227,(330) 270-0001,41.0976406,-80.7740296,17.9,Night,0.0,0.0,3.0,24.1,235.0
5066,35901 CHESTER RD,AVON,OH,44011-1069,(440) 937-4750,41.4663957,-82.0160036,16.8,Night,0.3,0.0,3.0,29.5,250.0
2124,3360 PENTAGON BLVD,BEAVERCREEK,OH,45431-2199,(937) 426-8227,39.7728173,-84.0540287,12.4,Night,0.1,0.0,3.0,24.3,276.0
1264,2281 US HIGHWAY 68 S,BELLEFONTAINE,OH,43311-8904,(937) 592-4700,40.333119,-83.761532,11.1,Night,0.9,0.0,3.0,26.3,267.0
1913,131 W GYPSY LANE RD,BOWLING GREEN,OH,43402-4503,(419) 352-3776,41.3543752,-83.6517593,10.8,Night,0.0,0.0,0.0,28.2,256.0
2191,1215 S MAIN ST,BRYAN,OH,43506-2442,(419) 636-1535,41.4596623,-84.5470087,8.6,Night,0.0,0.0,0.0,26.6,257.0
2613,1875 E MANSFIELD ST,BUCYRUS,OH,44820-2075,(419) 562-8101,40.8103355,-82.9469787,13.7,Night,0.0,0.0,3.0,30.0,257.0
3262,61205 SOUTHGATE RD,CAMBRIDGE,OH,43725-8002,(740) 439-5743,39.989419,-81.5766885,17.8,Night,0.5,0.0,3.0,18.8,234.0
5184,6674 WINCHESTER BLVD,CANAL WINCHESTER,OH,43110-2048,(614) 833-3930,39.8517989,-82.8232892,16.7,Night,0.0,0.0,3.0,23.7,242.0
5285,3200 ATLANTIC BLVD NE,CANTON,OH,44705-3933,(330) 489-9035,40.8335443,-81.3279943,17.4,Night,0.3,0.0,3.0,22.7,237.0
5410,4004 TUSCARAWAS ST W,CANTON,OH,44708-5503,(330) 479-9620,40.7940585,-81.4214694,17.2,Night,0.5,0.0,3.0,22.9,237.0
1433,1950 HAVEMANN RD,CELINA,OH,45822-9300,(419) 586-3777,40.554703,-84.5401941,8.9,Night,0.0,0.0,0.0,26.8,263.0
3293,PO BOX 118,CHARDON,OH,44024-0118,(440) 286-2250,41.5824944,-81.2034066,15.9,Night,0.1,0.0,2.0,26.8,237.0
2400,85 RIVER TRCE,CHILLICOTHE,OH,45601-2686,(740) 774-4800,39.3464712,-82.971022,17.3,Night,0.3,0.0,3.0,12.4,248.0
1443,4370 EASTGATE SQUARE DR,CINCINNATI,OH,45245-4502,(513) 753-3200,39.0899783,-84.2697902,15.5,Night,0.2,0.0,3.0,19.1,272.0
1521,8451 COLERAIN AVE,CINCINNATI,OH,45239-3926,(513) 245-9458,39.224542,-84.5916333,12.9,Night,0.0,0.0,3.0,20.3,283.0
2250,4000 RED BANK RD,CINCINNATI,OH,45227-3416,(513) 351-9818,39.1486027,-84.4027685,15.1,Night,0.0,0.0,3.0,19.7,288.0
2447,2322 FERGUSON RD,CINCINNATI,OH,45238-3503,(513) 922-8881,39.1275774,-84.5967271,13.1,Night,0.0,0.0,3.0,21.5,284.0
3749,2801 CUNNINGHAM RD,CINCINNATI,OH,45241-3270,(513) 769-1124,39.20053,-84.324764,14.8,Night,0.0,0.0,3.0,21.7,285.0
4609,10240 COLERAIN AVE,CINCINNATI,OH,45251-4904,(513) 385-0083,39.2604666,-84.597585,12.5,Night,0.0,0.0,3.0,21.8,283.0
1427,1470 S COURT ST,CIRCLEVILLE,OH,43113-2165,(740) 477-3678,39.5821391,-82.9476788,16.9,Night,0.4,0.0,3.0,20.4,234.0
2073,10000 BROOKPARK RD,CLEVELAND,OH,44130-1102,(216) 741-7340,41.4209223,-81.7549147,17.4,Night,0.4,0.0,3.0,25.5,248.0
4285,3400 STEELYARD DR,CLEVELAND,OH,44109-2386,(216) 661-2406,41.4615441,-81.6927077,17.8,Night,2.2,0.0,3.0,19.6,257.0
2098,3900 MORSE RD,COLUMBUS,OH,43219-3016,(614) 476-2070,40.0605235,-82.9131464,16.6,Night,0.0,0.0,3.0,20.3,240.0
2426,5200 WEST POINTE PLAZA,COLUMBUS,OH,43228-9126,(614) 876-7850,40.060826,-83.121434,15.2,Night,0.0,0.0,3.0,28.2,280.0
2666,3579 S HIGH ST,COLUMBUS,OH,43207-4008,(614) 409-0683,39.889651,-83.0008104,17.0,Night,0.0,0.0,3.0,18.8,241.0
3812,2700 BETHEL RD,COLUMBUS,OH,43220-2217,(614) 326-0083,40.0669453,-83.089392,15.2,Night,0.0,0.0,3.0,28.2,280.0
5185,1221 GEORGESVILLE RD,COLUMBUS,OH,43228-3327,(614) 275-9811,39.928339,-83.1169184,16.2,Night,0.0,0.0,3.0,23.6,254.0
2197,2016 MILLENNIUM BLVD,CORTLAND,OH,44410-9173,(330) 372-1772,41.2739576,-80.7724583,18.4,Night,0.0,0.0,3.0,22.6,233.0
1937,23605 AIRPORT RD,COSHOCTON,OH,43812-9262,(740) 622-1278,40.295014,-81.8511117,17.9,Night,0.1,0.0,3.0,22.6,236.0
1503,6244 WILMINGTON PIKE,DAYTON,OH,45459-7024,(937) 848-3188,39.6476216,-84.1072844,12.8,Night,0.1,0.0,3.0,23.0,279.0
1504,8800 KINGSRIDGE DR,DAYTON,OH,45458-1616,(937) 435-2222,39.6309255,-84.2116255,12.3,Night,0.0,0.0,3.0,22.8,282.0
3783,3465 YORK COMMONS BLVD,DAYTON,OH,45414-2675,(937) 454-6240,39.8459438,-84.1964562,12.3,Night,0.0,0.0,3.0,23.4,273.0
5385,1804 N CLINTON ST,DEFIANCE,OH,43512-8556,(419) 784-2390,41.3054997,-84.3644337,9.7,Night,0.0,0.0,0.0,25.5,261.0
1990,1760 COLUMBUS PIKE,DELAWARE,OH,43015-2726,(740) 363-9931,40.2664459,-83.0738044,14.4,Night,0.0,0.0,3.0,25.6,270.0
2471,5900 BRITTON PKWY,DUBLIN,OH,43016-1207,(614) 717-9660,40.073592,-83.1377753,14.7,Night,0.0,0.0,3.0,29.8,278.0
2774,7730 SAWMILL RD,DUBLIN,OH,43016-9297,(614) 943-6503,40.1233558,-83.0870407,14.7,Night,0.0,0.0,3.0,27.3,278.0
1707,16280 DRESDEN AVE,EAST LIVERPOOL,OH,43920-9024,(330) 386-4002,40.6632561,-80.5857015,18.5,Night,0.5,0.0,3.0,27.4,237.0
1863,33752 VINE ST,EASTLAKE,OH,44095-5100,(440) 269-8827,41.6401976,-81.4468255,17.4,Night,0.0,0.0,3.0,36.7,254.0
5374,100A E WASHINGTON JACKSON RD,EATON,OH,45320-9729,(937) 456-1777,39.7678784,-84.6333972,10.2,Night,0.0,0.0,0.0,21.3,273.0
4255,1000 CHESTNUT COMMONS DR,ELYRIA,OH,44035-9602,(440) 365-0135,41.3514919,-82.067272,16.9,Night,0.0,0.0,3.0,28.7,255.0
5409,7725 HOKE RD,ENGLEWOOD,OH,45315-9725,(937) 836-9405,39.8564904,-84.3357566,11.2,Night,0.0,0.0,2.0,23.1,272.0
1895,3750 W MARKET ST,FAIRLAWN,OH,44333-4804,(330) 668-1129,41.1346264,-81.6359723,16.8,Night,0.0,0.0,3.0,24.4,239.0
1718,2500 TIFFIN AVE,FINDLAY,OH,45840-9511,(419) 425-1300,41.0570165,-83.5950597,11.0,Night,0.0,0.0,0.0,25.8,251.0
3840,1161 TRENTON AVE,FINDLAY,OH,45840-1919,(419) 425-2186,41.0560776,-83.6731851,11.0,Night,0.0,0.0,0.0,24.5,253.0
3784,1275 E 2ND ST,FRANKLIN,OH,45005-1994,(937) 704-0568,39.5662998,-84.2777656,12.6,Night,0.4,0.0,3.0,22.0,280.0
1429,2052 N STATE ROUTE 53,FREMONT,OH,43420-8628,(419) 334-3190,41.378832,-83.117184,12.6,Night,0.0,0.0,0.0,28.7,248.0
2605,2145 EASTERN AVE,GALLIPOLIS,OH,45631-1873,(740) 441-0406,38.8207938,-82.1723429,18.8,Night,1.2,0.0,3.0,10.5,232.0
2035,1501 WAGNER AVENUE,GREENVILLE,OH,45331-2763,(937) 547-9644,40.1263537,-84.6163292,9.2,Night,0.0,0.0,0.0,20.9,269.0
5466,1693 STRINGTOWN RD,GROVE CITY,OH,43123-8265,(614) 539-8560,39.8757076,-83.042883,16.8,Night,0.0,0.0,3.0,20.6,241.0
2441,1505 MAIN ST,HAMILTON,OH,45013-1079,(513) 737-0564,39.4256067,-84.5994855,12.8,Night,0.0,0.0,3.0,25.2,289.0
3502,3201 PRINCETON RD,HAMILTON,OH,45011-5332,(513) 869-8400,39.3881444,-84.508184,13.1,Night,0.0,0.0,3.0,19.5,293.0
1594,911 HEBRON RD,HEATH,OH,43056-1182,(740) 522-5841,40.0284432,-82.4521898,16.5,Night,0.3,0.0,3.0,20.5,232.0
3515,540 HARRY SAUNER RD,HILLSBORO,OH,45133-8298,(937) 840-0208,39.2280302,-83.6227373,16.0,Night,0.6,0.0,51.0,21.5,256.0
3445,1355 S MCCORD RD,HOLLAND,OH,43528-9141,(419) 867-0155,41.6165921,-83.699352,10.0,Night,0.0,0.0,0.0,26.2,261.0
1495,7680 BRANDT PIKE,HUBER HEIGHTS,OH,45424-2340,(937) 237-1988,39.8632946,-84.098294,12.4,Night,0.0,0.0,3.0,25.2,273.0
1519,100 WALMART DR,JACKSON,OH,45640-8692,(740) 288-2700,39.0315133,-82.6207738,18.0,Night,0.2,0.0,51.0,16.7,251.0
3722,250 TALLMADGE RD,KENT,OH,44240-7204,(330) 673-3142,41.0984198,-81.383263,17.1,Night,0.2,0.0,3.0,28.1,237.0
5355,1241 E COLUMBUS ST,KENTON,OH,43326-1750,(419) 675-1156,40.6520103,-83.5914092,10.6,Night,0.0,0.0,1.0,24.8,261.0
3792,2687 N MEMORIAL DR,LANCASTER,OH,43130-1670,(740) 687-0323,39.7403251,-82.6422399,16.9,Night,0.0,0.0,3.0,22.9,242.0
1407,1530 WALMART DR,LEBANON,OH,45036-7342,(513) 932-4236,39.456511,-84.1719341,13.4,Night,0.0,0.0,3.0,24.5,280.0
2725,8659 COLUMBUS PIKE,LEWIS CENTER,OH,43035-9699,(740) 657-1341,40.1650276,-83.0164741,14.9,Night,0.0,0.0,3.0,30.2,278.0
1330,2450 ALLENTOWN RD,LIMA,OH,45805-1712,(419) 224-3168,40.7530876,-84.1518856,9.9,Night,0.0,0.0,0.0,23.4,256.0
3206,2400 HARDING HWY,LIMA,OH,45804-3428,(419) 222-4466,40.7283767,-84.0607202,10.0,Night,0.0,0.0,0.0,23.9,258.0
3282,12910 STATE ROUTE 664 S,LOGAN,OH,43138-8564,(740) 380-1472,39.541057,-82.438907,17.4,Night,0.1,0.0,3.0,18.5,241.0
5203,375 LAFAYETTE ST,LONDON,OH,43140-9326,(740) 852-1507,39.894134,-83.441745,14.7,Night,0.0,0.0,3.0,25.6,281.0
1839,4380 LEAVITT RD,LORAIN,OH,44053-2370,(440) 324-4104,41.4279148,-82.2064354,16.1,Night,0.3,0.0,3.0,29.4,251.0
1927,8160 MACEDONIA COMMONS BLVD,MACEDONIA,OH,44056-1843,(330) 468-0200,41.3102938,-81.520117,17.3,Night,0.0,0.0,2.0,24.4,236.0
3608,6067 N RIDGE RD,MADISON,OH,44057-2441,(440) 417-0010,41.8052032,-81.0719729,17.5,Night,1.1,0.0,63.0,29.9,244.0
5471,2485 POSSUM RUN RD,MANSFIELD,OH,44903-9447,(419) 756-2850,40.6924549,-82.5076675,14.7,Night,0.5,0.0,3.0,30.4,265.0
2078,804 PIKE ST,MARIETTA,OH,45750-3503,(740) 376-9030,39.4041473,-81.4190313,19.6,Night,0.0,0.0,3.0,16.4,241.0
1750,1546 MARION-MT. GILEAD ROAD,MARION,OH,43302-5820,(740) 389-3404,40.5836193,-83.0883531,13.3,Night,0.6,0.0,3.0,26.2,261.0
1595,555 COLEMANS CROSSING BLVD,MARYSVILLE,OH,43040-7042,(937) 644-2800,40.2297655,-83.3460006,13.2,Night,0.6,0.0,3.0,25.9,268.0
1441,5303 BOWEN DR,MASON,OH,45040-6732,(513) 583-9330,39.3113975,-84.3186429,14.2,Night,0.0,0.0,3.0,23.4,281.0
2914,1 MASSILLON MARKETPLACE DR SW,MASSILLON,OH,44646-2018,(330) 834-0500,40.690909,-81.704904,16.5,Night,0.2,0.0,3.0,26.5,236.0
1894,4141 PEARL RD,MEDINA,OH,44256-7649,(330) 723-1122,41.1623703,-81.8585896,17.2,Night,0.1,0.0,3.0,20.8,247.0
1857,9303 MENTOR AVE,MENTOR,OH,44060-6413,(440) 974-3300,41.6788023,-81.3077059,17.3,Night,0.0,0.0,3.0,30.4,243.0
5387,15050 S SPRINGDALE AVE,MIDDLEFIELD,OH,44062-9211,(440) 632-0383,41.4586829,-81.0854568,16.9,Night,0.1,0.0,3.0,26.7,233.0
3571,2900 TOWNE BLVD,MIDDLETOWN,OH,45044-6200,(513) 423-6785,39.4886876,-84.3269182,13.2,Night,0.0,0.0,3.0,23.0,280.0
5499,201 CHAMBER DR,MILFORD,OH,45150-2516,(513) 248-0067,39.1593169,-84.2808813,15.6,Night,0.0,0.0,3.0,15.9,283.0
1724,PO BOX 247,MILLERSBURG,OH,44654-0247,(330) 674-2888,40.5545071,-81.9179198,17.2,Night,0.7,0.0,55.0,19.9,238.0
5104,1701 W DOROTHY LN,MORAINE,OH,45439-1838,(937) 643-2124,39.7113557,-84.2017651,12.8,Night,0.1,0.0,3.0,21.1,279.0
2149,1575 COSHOCTON AVE,MOUNT VERNON,OH,43050-1476,(740) 392-3800,40.402533,-82.440313,16.0,Night,0.7,0.0,3.0,22.3,239.0
1416,1815 SCOTT ST,NAPOLEON,OH,43545-1086,(419) 599-1973,41.4043609,-84.1348806,9.6,Night,0.1,0.0,0.0,30.8,263.0
1564,4490 GALLIA ST,NEW BOSTON,OH,45662-5566,(740) 456-8257,38.7527327,-82.9258521,17.8,Night,0.4,0.0,3.0,12.8,259.0
2115,231 BLUEBELL DR SW,NEW PHILADELPHIA,OH,44663-9601,(330) 339-3991,40.4958083,-81.4703272,18.1,Night,0.3,0.0,3.0,22.0,230.0
3580,1315 N 21ST ST,NEWARK,OH,43055-3090,(740) 364-9090,40.0857395,-82.430799,16.5,Night,0.2,0.0,3.0,19.5,232.0
2361,4572 MEGA ST NW,NORTH CANTON,OH,44720-7098,(330) 305-9527,40.8708114,-81.4333969,17.2,Night,0.1,0.0,3.0,24.8,237.0
2316,24801 BROOKPARK RD,NORTH OLMSTED,OH,44070-3487,(440) 979-9234,41.4170751,-81.8963887,17.4,Night,0.2,0.0,2.0,27.3,254.0
1986,340 WESTWIND DR,NORWALK,OH,44857-9104,(419) 663-2212,41.2618284,-82.6171342,14.7,Night,0.0,0.0,1.0,31.4,250.0
5309,46440 US ROUTE 20,OBERLIN,OH,44074-9475,(440) 774-6720,41.265054,-82.256101,15.8,Night,0.0,0.0,3.0,32.2,252.0
1539,359 N LEXINGTON SPRINGMILL RD,ONTARIO,OH,44906-3808,(419) 529-2950,40.7621642,-82.5945423,13.9,Night,0.2,0.0,3.0,30.4,259.0
5029,3721 NAVARRE AVE,OREGON,OH,43616-3433,(419) 698-2034,41.6396516,-83.4596212,10.7,Night,0.0,0.0,0.0,25.6,256.0
2542,1720 N PERRY ST,OTTAWA,OH,45875-1153,(419) 523-6995,41.0341446,-84.034851,10.3,Night,0.0,0.0,0.0,28.5,260.0
2275,5720 COLLEGE CORNER PIKE,OXFORD,OH,45056-1178,(513) 524-4122,39.5289481,-84.7664206,10.5,Night,0.4,0.0,1.0,22.7,280.0
5082,8303 W RIDGEWOOD DR,PARMA,OH,44129-5524,(440) 884-5641,41.3818541,-81.7446203,17.1,Night,0.0,0.0,3.0,30.3,246.0
4479,10392 FREMONT PIKE,PERRYSBURG,OH,43551-3335,(419) 874-0291,41.550487,-83.5934852,10.6,Night,0.0,0.0,0.0,28.7,258.0
3765,1300 E ASH ST,PIQUA,OH,45356-4100,(937) 615-9924,40.1537202,-84.2083428,10.4,Night,0.3,0.0,1.0,19.8,267.0
2211,1300 DORAL DR,POLAND,OH,44514-1900,(330) 758-0011,41.028212,-80.631307,17.9,Night,0.1,0.0,3.0,25.3,237.0
1445,2826 EAST HARBOR RD,PORT CLINTON,OH,43452-2611,(419) 732-3369,41.5200016,-82.8631613,12.9,Night,0.0,0.0,0.0,31.0,247.0
2506,2600 STATE ROUTE 59,RAVENNA,OH,44266-1646,(330) 677-0338,41.1560212,-81.2995707,17.3,Night,0.0,0.0,3.0,24.3,238.0
2726,2793 TAYLOR ROAD EXT,REYNOLDSBURG,OH,43068-9549,(614) 367-1015,40.017611,-82.765459,16.2,Night,0.1,0.0,3.0,26.2,236.0
2199,50739 VALLEY PLAZA DR,SAINT CLAIRSVILLE,OH,43950-1751,(740) 695-8410,40.0757141,-80.8750539,18.7,Night,0.1,0.0,3.0,23.8,238.0
2910,2875 E STATE ST,SALEM,OH,44460-9303,(330) 337-8313,40.8996677,-80.8175902,17.4,Night,0.0,0.0,3.0,27.4,240.0
1628,5500 MILAN RD STE 200,SANDUSKY,OH,44870-7804,(419) 627-8778,41.4049251,-82.6564094,14.2,Night,0.0,0.0,1.0,33.0,248.0
1331,2400 MICHIGAN ST,SIDNEY,OH,45365-9080,(937) 498-2371,40.2878197,-84.1903338,9.7,Night,0.1,0.0,0.0,23.2,263.0
2362,1868 WARRENSVILLE CENTER RD,SOUTH EUCLID,OH,44121-2686,(216) 382-1657,41.5089197,-81.5410243,17.0,Night,0.4,0.0,3.0,26.6,245.0
1478,354 PRIVATE DRIVE 288,SOUTH POINT,OH,45680-7900,(740) 894-3235,38.469041,-82.572152,18.5,Night,1.7,0.0,3.0,15.1,252.0
2429,2100 N BECHTLE AVE,SPRINGFIELD,OH,45504-1584,(937) 399-0370,39.9516258,-83.8263959,12.4,Night,0.0,0.0,3.0,25.2,273.0
3641,200 S TUTTLE RD,SPRINGFIELD,OH,45505-1556,(937) 325-2111,39.9208263,-83.7469083,12.7,Night,0.0,0.0,3.0,26.0,275.0
2193,100 MALL DR,STEUBENVILLE,OH,43952-3092,(740) 266-7136,40.3667154,-80.671275,18.8,Night,0.5,0.0,3.0,24.9,239.0
2323,3520 HUDSON DR,STOW,OH,44224-2907,(330) 923-8232,41.1656278,-81.4799503,17.3,Night,0.0,0.0,3.0,25.2,239.0
2313,905 SINGLETARY DR,STREETSBORO,OH,44241-3975,(330) 626-9990,41.2529635,-81.3615189,17.1,Night,0.0,0.0,3.0,26.5,239.0
2266,8585 PEARL RD,STRONGSVILLE,OH,44136-1641,(440) 826-0004,41.3468154,-81.8191787,17.2,Night,0.1,0.0,3.0,28.7,246.0
1622,2801 W STATE ROUTE 18,TIFFIN,OH,44883-8950,(419) 448-4402,41.1122179,-83.2206599,12.1,Night,0.0,0.0,1.0,30.9,251.0
5028,2925 GLENDALE AVE,TOLEDO,OH,43614-2684,(419) 380-0994,41.6092437,-83.6123273,10.4,Night,0.0,0.0,0.0,26.3,260.0
5030,5821 W CENTRAL AVE,TOLEDO,OH,43615-1403,(419) 536-9105,41.6745603,-83.6806774,10.2,Night,0.0,0.0,0.0,28.2,260.0
1410,1801 W MAIN ST,TROY,OH,45373-2303,(937) 339-7211,40.0565474,-84.2356471,10.7,Night,0.0,0.0,2.0,22.7,266.0
3809,1855 E WYANDOT AVE,UPPER SANDUSKY,OH,43351-9763,(419) 294-3404,40.8348675,-83.2321898,12.9,Night,0.0,0.0,3.0,32.1,258.0
1239,1840 E US HIGHWAY 36,URBANA,OH,43078-9600,(937) 653-5313,40.188873,-83.820349,11.8,Night,0.1,0.0,3.0,27.4,271.0
1333,301 TOWN CENTER BLVD,VAN WERT,OH,45891-9087,(419) 238-5662,40.8895782,-84.5787801,8.9,Night,0.0,0.0,0.0,29.7,264.0
2966,222 E SMOKERISE DR,WADSWORTH,OH,44281-8277,(330) 336-5170,41.0515317,-81.7258228,15.6,Night,0.4,0.0,61.0,25.9,232.0
3300,1257 BELLEFONTAINE ST,WAPAKONETA,OH,45895-9732,(419) 738-0474,40.5615523,-84.17778,9.9,Night,0.0,0.0,0.0,25.1,258.0
3251,1397 LEESBURG AVE,WASHINGTON COURT HOUSE,OH,43160-8655,(740) 333-3171,39.5226271,-83.4559793,15.9,Night,0.0,0.0,3.0,22.1,251.0
2350,485 AIRPORT HWY,WAUSEON,OH,43567-8709,(419) 337-8900,41.573428,-84.13625,9.0,Night,0.0,0.0,1.0,33.2,257.0
2572,990 W EMMITT AVE,WAVERLY,OH,45690-1095,(740) 947-1700,39.1102204,-83.0000469,17.5,Night,0.7,0.0,51.0,13.2,235.0
2309,8288 CINCINNATI DAYTON RD,WEST CHESTER,OH,45069-2143,(513) 777-2397,39.3457091,-84.3918066,13.6,Night,0.1,0.0,3.0,22.7,281.0
1368,11217 STATE ROUTE 41,WEST UNION,OH,45693-9397,(937) 544-7198,38.781219,-83.564221,16.6,Night,0.8,0.0,3.0,18.2,232.0
5857,50 E SCHROCK RD,WESTERVILLE,OH,43081-2915,(614) 948-4402,40.111065,-82.9238637,16.7,Night,0.0,0.0,3.0,20.6,241.0
3447,3657 E MAIN ST,WHITEHALL,OH,43213-2924,(614) 239-7509,39.9531046,-82.9008682,16.7,Night,0.1,0.0,3.0,19.4,239.0
1289,2825 PROGRESS WAY,WILMINGTON,OH,45177-7710,(937) 382-4919,39.4529103,-83.7791079,15.0,Night,0.0,0.0,3.0,25.2,273.0
1812,3883 BURBANK RD,WOOSTER,OH,44691-7220,(330) 345-8955,40.8477935,-81.9416932,16.4,Night,0.3,0.0,3.0,24.2,247.0
1463,70 HOSPITALITY DR,XENIA,OH,45385-2779,(937) 376-9878,39.6893769,-83.9703111,13.4,Night,0.1,0.0,3.0,22.5,276.0
3860,200 GOLDIE RD,YOUNGSTOWN,OH,44505-1948,(330) 759-2066,41.1475425,-80.6617362,17.9,Night,0.0,0.0,3.0,23.7,237.0
2209,2850 MAPLE AVE,ZANESVILLE,OH,43701-1723,(740) 455-9001,39.9782445,-82.0118563,17.5,Night,0.1,0.0,3.0,24.3,238.0
3581,2850 MAYSVILLE PIKE,ZANESVILLE,OH,43701-8577,(740) 452-3282,39.8929391,-82.039957,17.8,Night,0.0,0.0,3.0,23.9,239.0
231,1419 N COUNTRY CLUB RD,ADA,OK,74820-1836,(580) 332-2232,34.789127,-96.65614,10.4,Night,0.0,0.0,0.0,6.6,77.0
479,2500 N MAIN ST,ALTUS,OK,73521-1614,(580) 482-8189,34.664235,-99.331291,9.3,Night,0.0,0.0,0.0,9.0,85.0
178,914 E OKLAHOMA BLVD,ALVA,OK,73717-4010,(580) 327-4021,36.7998598,-98.6456882,7.2,Night,0.0,0.0,0.0,6.9,171.0
162,1201 W PETREE RD,ANADARKO,OK,73005-6041,(405) 247-2535,35.0601017,-98.2623976,8.8,Night,0.0,0.0,0.0,4.7,86.0
129,1715 N COMMERCE ST,ARDMORE,OK,73401-1535,(580) 226-1257,34.1932865,-97.1452708,11.1,Night,0.0,0.0,0.0,7.8,34.0
232,1983 S MISSISSIPPI AVE,ATOKA,OK,74525-3629,(580) 889-6676,34.366227,-96.1426573,11.4,Night,0.0,0.0,0.0,5.4,4.0
41,4000 SE GREEN COUNTRY RD,BARTLESVILLE,OK,74006-5000,(918) 335-6600,36.740709,-95.9316231,7.7,Night,0.0,0.0,0.0,4.0,350.0
136,1219 W DOOLIN AVE,BLACKWELL,OK,74631-1351,(580) 363-4111,36.8099285,-97.2973743,8.2,Night,0.0,0.0,0.0,4.9,73.0
324,105 W HIGHWAY 16,BRISTOW,OK,74010-3390,(918) 367-3335,35.832867,-96.390882,9.6,Night,0.0,0.0,0.0,1.9,68.0
472,2301 W KENOSHA ST,BROKEN ARROW,OK,74012-8912,(918) 259-9126,36.0581361,-95.8176793,9.5,Night,0.0,0.0,0.0,7.4,39.0
3295,6310 S ELM PL,BROKEN ARROW,OK,74011-4100,(918) 455-4354,35.991562,-95.8006874,9.8,Night,0.0,0.0,0.0,6.2,36.0
3508,1770 S ELM PL,BROKEN ARROW,OK,74012-6453,(918) 258-6175,36.0333443,-95.7991914,9.4,Night,0.0,0.0,0.0,6.6,41.0
4637,3900 E HILLSIDE DR,BROKEN ARROW,OK,74014-6713,(918) 355-1024,36.0671873,-95.7420968,9.3,Night,0.0,0.0,0.0,6.2,21.0
4655,1300 E ALBANY ST,BROKEN ARROW,OK,74012-8951,(918) 505-6247,36.0762947,-95.775777,9.4,Night,0.0,0.0,0.0,6.1,28.0
6942,4851 W HOUSTON ST,BROKEN ARROW,OK,74012-4671,(918) 505-6090,36.045101,-95.8491387,9.5,Night,0.0,0.0,0.0,6.2,36.0
117,501 S PARK DR,BROKEN BOW,OK,74728-5329,(580) 584-3324,34.0224747,-94.7379472,13.0,Night,0.0,0.0,0.0,6.2,21.0
3055,19801 ROBSON RD,CATOOSA,OK,74015-1510,(918) 739-7001,36.1651576,-95.7565253,9.7,Night,0.0,0.0,0.0,4.9,36.0
387,3100 E 1ST ST,CHANDLER,OK,74834-9585,(405) 258-0541,35.709832,-96.8647317,8.9,Night,0.0,0.0,0.0,2.5,90.0
340,131 PAUL CARR DR,CHECOTAH,OK,74426-2063,(918) 473-2201,35.4699351,-95.534388,9.5,Night,0.0,0.0,0.0,2.9,300.0
113,2001 S 1ST ST,CHICKASHA,OK,73018-6007,(405) 224-1867,35.031027,-97.931081,9.2,Night,0.0,0.0,0.0,4.4,305.0
4195,14185 MACK HARRINGTON DR,CHOCTAW,OK,73020-2035,(405) 390-4262,35.453572,-97.309281,9.6,Night,0.0,0.0,0.0,4.8,63.0
12,1500 S LYNN RIGGS BLVD,CLAREMORE,OK,74017-8353,(918) 341-2765,36.2939621,-95.627204,9.7,Night,0.0,0.0,0.0,2.6,344.0
207,772 N AIRPORT RD,CLEVELAND,OK,74020-1208,(918) 358-3553,36.261477,-96.460821,9.3,Night,0.0,0.0,0.0,6.3,66.0
374,11207 S STATE HIGHWAY 51,COWETA,OK,74429-6442,(918) 486-6511,35.963951,-95.654953,10.1,Night,0.0,0.0,0.0,7.0,12.0
360,3100 E MAIN ST,CUSHING,OK,74023-3072,(918) 225-0578,35.9874705,-96.7212395,8.7,Night,0.0,0.0,0.0,1.8,270.0
544,5401 TINKER DIAGONAL ST,DEL CITY,OK,73115-4622,(405) 670-1007,35.46103,-97.459502,9.5,Night,0.0,0.0,0.0,2.1,59.0
1116,3393 N 81 HWY,DUNCAN,OK,73533-1413,(580) 255-5455,34.458677,-97.96502,10.3,Night,0.0,0.0,0.0,7.4,39.0
975,3712 W MAIN ST,DURANT,OK,74701-4529,(580) 920-0234,34.0004325,-96.4133446,12.4,Night,0.0,0.0,0.0,10.0,30.0
389,1225 W I 35 FRONTAGE RD,EDMOND,OK,73034-7394,(405) 348-8005,35.6407265,-97.4256812,9.1,Night,0.0,0.0,0.0,1.1,162.0
2803,2200 W DANFORTH RD,EDMOND,OK,73003-4600,(405) 216-0520,35.6656209,-97.5120795,9.0,Night,0.0,0.0,0.0,7.1,114.0
2876,1301 E 2ND ST,EDMOND,OK,73034-5320,(405) 715-2587,35.65287,-97.462892,9.1,Night,0.0,0.0,0.0,5.8,120.0
3275,1101 NW 164TH ST,EDMOND,OK,73013-1310,(405) 216-8478,35.639668,-97.53257,8.7,Night,0.0,0.0,0.0,4.6,129.0
227,2400 S COUNTRY CLUB RD,EL RENO,OK,73036-5801,(405) 262-7354,35.511135,-97.9759453,9.0,Night,0.0,0.0,0.0,4.3,42.0
134,210 REGIONAL DR,ELK CITY,OK,73644-6472,(580) 225-3003,35.419594,-99.437791,6.3,Night,0.0,0.0,0.0,1.9,158.0
499,5505 W OWEN K GARRIOTT RD,ENID,OK,73703-6075,(580) 237-7963,36.3873861,-97.9465052,8.3,Night,0.0,0.0,0.0,6.6,119.0
4390,1018 N. CLEVELAND STREET,ENID,OK,73703-0000,(580) 599-6008,36.4063755,-97.9096187,8.1,Night,0.0,0.0,0.0,4.3,138.0
4615,12200 S WACO AVE,GLENPOOL,OK,74033-5655,(918) 299-8030,35.9838987,-96.0142803,9.8,Night,0.0,0.0,0.0,2.7,23.0
90,2115 S MAIN ST,GROVE,OK,74344-5327,(918) 786-8561,36.5763914,-94.7657041,9.0,Night,0.0,0.0,0.0,6.5,71.0
108,1608 S DIVISION ST,GUTHRIE,OK,73044-5015,(405) 282-7900,35.8627228,-97.422758,9.4,Night,0.0,0.0,0.0,6.7,126.0
1437,2600 N HIGHWAY 64,GUYMON,OK,73942-2751,(580) 338-1611,36.707709,-101.485969,6.8,Night,0.0,0.0,0.0,14.5,166.0
247,605 E MAIN ST,HENRYETTA,OK,74437-4439,(918) 652-9676,35.438882,-95.974421,9.8,Night,0.0,0.0,0.0,4.6,342.0
607,923 W 11TH ST,HOBART,OK,73651-5435,(580) 726-5693,35.017074,-99.10422,7.8,Night,0.0,0.0,0.0,11.9,95.0
210,500 EAST HIGHWAY 270,HOLDENVILLE,OK,74848-4238,(405) 379-6688,35.072406,-96.247637,9.9,Night,0.0,0.0,0.0,2.3,39.0
49,1911 E JACKSON ST,HUGO,OK,74743-4249,(580) 326-6494,34.0072385,-95.488555,12.3,Night,0.0,0.0,0.0,8.9,32.0
38,1907 SE WASHINGTON ST,IDABEL,OK,74745-5253,(580) 286-6696,33.8980363,-94.8035972,13.0,Night,0.0,0.0,0.0,7.3,20.0
5336,11020 ELM ST,JENKS,OK,74037-3002,(918) 209-7017,36.0036986,-95.9782994,9.9,Night,0.0,0.0,0.0,1.6,27.0
132,200 STARLITE DR,KINGFISHER,OK,73750-4922,(405) 375-5743,35.8287077,-97.9367432,9.3,Night,0.0,0.0,0.0,4.0,185.0
269,1002 NW SHERIDAN RD,LAWTON,OK,73505-5208,(580) 355-9070,34.6187424,-98.4243861,10.3,Night,0.0,0.0,0.0,9.1,18.0
2984,3745 SW LEE BLVD,LAWTON,OK,73505-8322,(580) 713-7702,34.595819,-98.438776,10.0,Night,0.0,0.0,0.0,8.9,27.0
5071,6301 NW QUANNAH PARKER TRL,LAWTON,OK,73505-1326,(580) 510-9130,34.63107,-98.474693,10.3,Night,0.0,0.0,0.0,10.8,26.0
893,401 LINWOOD PLZ,LINDSAY,OK,73052-4602,(405) 756-9535,34.849973,-97.6046,11.2,Night,0.0,0.0,0.0,7.0,35.0
3723,800 E MAIN,LOCUST GROVE,OK,74352-0000,(918) 479-4810,36.19997,-95.164429,9.8,Night,0.0,0.0,0.0,6.8,65.0
1295,1100 S 1ST ST,MADILL,OK,73446-3900,(580) 795-7383,34.070009,-96.7655591,11.9,Night,0.0,0.0,0.0,6.4,16.0
151,432 S GEORGE NIGH EXPY,MCALESTER,OK,74501-6025,(918) 423-8585,34.9192312,-95.7405609,9.9,Night,0.0,0.0,0.0,2.2,360.0
28,2415 N MAIN ST,MIAMI,OK,74354-2232,(918) 542-6654,36.9023974,-94.8776826,8.2,Night,0.0,0.0,0.0,8.0,36.0
5863,7520 E RENO AVE,MIDWEST CITY,OK,73110-4312,(405) 455-4070,35.462581,-97.3896035,9.8,Night,0.0,0.0,0.0,6.2,80.0
277,501 SW 19TH ST,MOORE,OK,73160-5427,(405) 790-0021,,,,,,,,,
2393,640 SE 4TH ST,MOORE,OK,73160-6733,(405) 794-2724,,,,,,,,,
130,1000 W SHAWNEE ST,MUSKOGEE,OK,74401-3509,(918) 687-0058,35.7698769,-95.3741409,9.9,Night,0.0,0.0,0.0,4.7,23.0
517,951 E STATE HIGHWAY 152,MUSTANG,OK,73064-5119,(405) 376-4549,35.391799,-97.743944,9.1,Night,0.0,0.0,0.0,7.7,62.0
1056,3300 TRI CITY DR,NEWCASTLE,OK,73065-6599,(405) 387-3400,35.215704,-97.551389,10.0,Night,0.0,0.0,0.0,5.6,320.0
212,333 N INTERSTATE DR,NORMAN,OK,73069-6326,(405) 329-4000,35.2215036,-97.4811463,10.5,Night,0.0,0.0,0.0,6.5,56.0
2734,601 12TH AVE NE,NORMAN,OK,73071-5324,(405) 579-5203,35.2270765,-97.4199338,9.9,Night,0.0,0.0,0.0,4.8,48.0
5805,3571 W ROCK CREEK RD,NORMAN,OK,73072-2473,(405) 515-7283,35.247503,-97.4997913,10.1,Night,0.0,0.0,0.0,4.9,36.0
7294,3651 CLASSEN BLVD,NORMAN,OK,73071-1556,(405) 515-7024,35.1737495,-97.40857,10.2,Night,0.0,0.0,0.0,7.7,49.0
7308,2551 CLASSEN BLVD,NORMAN,OK,73071-4381,(405) 515-7418,35.1944505,-97.4242166,10.8,Night,0.0,0.0,0.0,6.7,54.0
564,6100 W RENO AVE,OKLAHOMA CITY,OK,73127-6507,(405) 491-0320,35.4633465,-97.6223074,9.2,Night,0.0,0.0,0.0,2.6,34.0
622,7800 NW EXPRESSWAY,OKLAHOMA CITY,OK,73132-1554,(405) 773-2625,35.5623688,-97.6540142,9.8,Night,0.0,0.0,0.0,8.0,100.0
1626,2000 W MEMORIAL RD,OKLAHOMA CITY,OK,73134-6506,(405) 752-1900,35.6084066,-97.5487688,8.8,Night,0.0,0.0,0.0,5.8,120.0
2394,1500 SW 59TH ST,OKLAHOMA CITY,OK,73119-7214,(405) 684-9761,35.4054689,-97.545407,10.3,Night,0.0,0.0,0.0,4.8,63.0
2804,1801 BELLE ISLE BLVD,OKLAHOMA CITY,OK,73118-4221,(405) 841-6502,35.5262899,-97.5385792,9.3,Night,0.0,0.0,0.0,2.6,74.0
2877,11101 N ROCKWELL AVE,OKLAHOMA CITY,OK,73162-2724,(405) 773-3555,35.5825065,-97.6399684,9.5,Night,0.0,0.0,0.0,4.6,108.0
2878,911 SW 104TH ST,OKLAHOMA CITY,OK,73139-3009,(405) 692-3860,35.3643745,-97.5312838,10.2,Night,0.0,0.0,0.0,5.8,60.0
3202,4900 S SOONER RD,OKLAHOMA CITY,OK,73135-5428,(405) 458-6255,35.4150524,-97.4219275,9.5,Night,0.0,0.0,0.0,4.9,73.0
3327,2900 SW 134TH ST,OKLAHOMA CITY,OK,73170-5403,(405) 300-6446,35.3329,-97.5663,10.0,Night,0.0,0.0,0.0,5.1,45.0
3430,9011 NE 23RD ST,OKLAHOMA CITY,OK,73141-3009,(405) 769-2164,35.4957455,-97.3693403,9.5,Night,0.0,0.0,0.0,6.5,87.0
3615,2217 NW 23RD ST,OKLAHOMA CITY,OK,73107-2403,(405) 521-1431,35.4945903,-97.550595,9.3,Night,0.0,0.0,0.0,3.0,76.0
5314,4420 S WESTERN AVE,OKLAHOMA CITY,OK,73109-3414,(405) 632-4497,35.4213929,-97.5279316,9.9,Night,0.0,0.0,0.0,4.0,63.0
5323,13503 S SANTA FE AVE,OKLAHOMA CITY,OK,73170-7314,(405) 300-6419,35.332783,-97.51295,10.3,Night,0.0,0.0,0.0,6.3,59.0
7326,3301 SW 104TH ST,OKLAHOMA CITY,OK,73159-7043,(405) 300-6584,35.3657725,-97.5767151,10.2,Night,0.0,0.0,0.0,5.7,55.0
743,100 EAST I 240 SERVI,OKLAHOMA CITY ( SOUTH ),OK,73149-0000,(405) 631-0746,35.391569,-97.511471,10.2,Night,0.0,0.0,0.0,5.2,65.0
121,1800 S WOOD DR,OKMULGEE,OK,74447-6826,(918) 756-6790,35.6056712,-95.9644236,9.9,Night,0.0,0.0,0.0,4.6,288.0
168,12101 E 96TH ST N,OWASSO,OK,74055-5320,(918) 272-6609,36.2951592,-95.8379284,9.1,Night,0.0,0.0,0.0,6.6,41.0
4585,11551 N 129TH EAST AVE,OWASSO,OK,74055-7446,(918) 371-3576,36.3214687,-95.828842,8.9,Night,0.0,0.0,0.0,5.2,34.0
5840,12912 E 86TH ST N,OWASSO,OK,74055-8608,(918) 274-0030,36.2766628,-95.8288322,9.4,Night,0.0,0.0,0.0,6.1,50.0
1043,PO BOX 938,PAULS VALLEY,OK,73075-0938,(405) 238-7353,34.7392055,-97.218509,10.3,Night,0.0,0.0,0.0,6.9,43.0
823,1101 E PROSPECT AVE,PONCA CITY,OK,74601-1744,(580) 762-0395,36.7417034,-97.0711026,8.0,Night,0.0,0.0,0.0,9.0,95.0
31,3108 N BROADWAY ST,POTEAU,OK,74953-5410,(918) 647-5040,35.0944925,-94.6282775,11.3,Night,0.0,0.0,0.0,4.2,301.0
22,4901 S MILL ST,PRYOR,OK,74361-6837,(918) 825-6000,36.2623705,-95.3299504,9.4,Night,0.0,0.0,0.0,4.0,10.0
139,2015 S GREEN AVE,PURCELL,OK,73080-6200,(405) 527-5621,34.9875394,-97.3702158,9.7,Night,0.0,0.0,0.0,5.9,14.0
47,1101 W RUTH AVE,SALLISAW,OK,74955-7252,(918) 775-4492,35.4510137,-94.8017716,10.5,Night,0.0,0.0,0.0,4.7,328.0
838,220 S HIGHWAY 97,SAND SPRINGS,OK,74063-6503,(918) 245-0213,36.138699,-96.108971,10.0,Night,0.0,0.0,0.0,4.7,32.0
73,1002 W TAFT ST,SAPULPA,OK,74066-8720,(918) 224-8080,35.988423,-96.155433,10.3,Night,0.0,0.0,0.0,1.4,360.0
123,1500 E WRANGLER BLVD,SEMINOLE,OK,74868-3518,(405) 382-5290,35.2464648,-96.7018431,9.9,Night,0.0,0.0,0.0,6.0,25.0
103,196 SHAWNEE MALL DR,SHAWNEE,OK,74804-1337,(405) 275-1030,35.386851,-96.921713,9.7,Night,0.0,0.0,0.0,3.2,333.0
246,700 W ROGERS BLVD,SKIATOOK,OK,74070-1035,(918) 396-1244,36.3710782,-96.0108769,9.2,Night,0.0,0.0,0.0,6.2,7.0
276,1312 E MAIN ST,STIGLER,OK,74462-2830,(918) 967-4637,35.252367,-95.1083949,10.3,Night,0.0,0.0,0.0,4.0,297.0
137,111 N PERKINS RD,STILLWATER,OK,74075-5507,(405) 372-2897,36.1257391,-97.0513376,8.6,Night,0.0,0.0,0.0,2.4,333.0
4241,4545 W 6TH AVE,STILLWATER,OK,74074-1523,(405) 707-0744,36.1137364,-97.118157,8.7,Night,0.0,0.0,0.0,2.3,321.0
5364,2315 N PERKINS RD,STILLWATER,OK,74075-2203,(405) 564-7116,36.1454401,-97.0495734,8.6,Night,0.0,0.0,0.0,2.5,360.0
81,84127 HIGHWAY 59,STILWELL,OK,74960-4257,(918) 696-3141,35.811242,-94.626684,9.4,Night,0.0,0.0,0.0,6.1,40.0
225,2705 W BROADWAY AVE,SULPHUR,OK,73086-6508,(580) 622-6146,34.5040616,-97.0042531,10.0,Night,0.0,0.0,0.0,7.1,49.0
10,2020 S MUSKOGEE AVE,TAHLEQUAH,OK,74464-5439,(918) 456-8804,35.8907411,-94.977284,10.1,Night,0.0,0.0,0.0,3.6,53.0
5286,9320 N PENNSYLVANIA PL,THE VILLAGE,OK,73120-1519,(405) 840-8435,35.565382,-97.549176,9.2,Night,0.0,0.0,0.0,4.3,95.0
576,207 S MEMORIAL DR,TULSA,OK,74112-2201,(918) 834-8700,36.1593064,-95.883841,10.0,Night,0.0,0.0,0.0,3.6,45.0
894,6625 S MEMORIAL DR,TULSA,OK,74133-2036,(918) 294-3800,36.0669104,-95.8833093,9.5,Night,0.0,0.0,0.0,5.5,23.0
992,2019 E 81ST ST,TULSA,OK,74137-4232,(918) 488-8791,36.0480668,-95.9607086,10.5,Night,0.0,0.0,0.0,3.4,18.0
1597,10938 S MEMORIAL DR,TULSA,OK,74133-7352,(918) 394-4000,36.0062826,-95.8866978,10.1,Night,0.0,0.0,0.0,6.4,27.0
2395,9411 S DELAWARE AVE,TULSA,OK,74137-5614,(918) 299-8316,36.0273644,-95.946982,10.4,Night,0.0,0.0,0.0,5.4,42.0
2880,6606 E 81ST ST,TULSA,OK,74133-4247,(918) 524-1435,36.0449383,-95.9031795,9.9,Night,0.0,0.0,0.0,6.3,31.0
3340,4720 E 21ST ST,TULSA,OK,74114-2109,(918) 392-7020,36.1317351,-95.9237818,9.8,Night,0.0,0.0,0.0,5.6,45.0
3457,3116 S GARNETT RD,TULSA,OK,74146-1933,(918) 622-7797,36.1181543,-95.8535039,9.8,Night,0.0,0.0,0.0,6.7,54.0
5093,4404 S PEORIA AVE,TULSA,OK,74105-3926,(918) 749-1577,36.0993141,-95.9771588,10.5,Night,0.0,0.0,0.0,3.0,14.0
6170,3139 S HARVARD AVE E,TULSA,OK,74135-0000,(918) 984-6290,36.0248006,-95.9400057,10.3,Night,0.0,0.0,0.0,5.4,42.0
50,268 S 7TH ST,VINITA,OK,74301-3737,(918) 256-7505,36.6314131,-95.1397865,8.6,Night,0.0,0.0,0.0,4.7,4.0
63,410 S DEWEY AVE,WAGONER,OK,74467-5500,(918) 485-9515,35.9567395,-95.3975384,9.7,Night,0.0,0.0,0.0,5.8,22.0
2875,6437 N. MACARTHUR BLVD,WARR ACRES,OK,73132-6503,(405) 495-1001,35.538043,-97.62107,9.4,Night,0.0,0.0,0.0,6.6,99.0
392,1349 E EAGLE RD,WEATHERFORD,OK,73096-9208,(580) 772-1408,35.522439,-98.652744,7.2,Night,0.0,0.0,0.0,8.4,121.0
150,3215 WILLIAMS AVE,WOODWARD,OK,73801-6738,(580) 254-3331,36.4126161,-99.385155,7.5,Night,0.0,0.0,0.0,16.3,155.0
221,1200 GARTH BROOKS BLVD,YUKON,OK,73099-4107,(405) 350-1900,35.5207216,-97.7600633,9.1,Night,0.0,0.0,0.0,5.1,82.0
3637,1001 E MAIN ST,YUKON,OK,73099-2137,(405) 577-0049,35.5091166,-97.7256424,8.9,Night,0.0,0.0,0.0,4.3,90.0
5396,1330 GOLDFISH FARM RD SE,ALBANY,OR,97322-5154,(541) 971-4052,44.6269216,-123.0514269,9.6,Night,10.5,0.0,61.0,20.0,210.0
3050,9055 SW MURRAY BLVD,BEAVERTON,OR,97008-7434,(503) 207-9915,45.4548909,-122.8285616,9.3,Night,6.5,0.0,3.0,15.0,204.0
5993,17275 NW CORNELL RD,BEAVERTON CORNELL,OR,97006-3297,(503) 207-7627,45.534752,-122.85421,9.5,Night,8.2,0.0,3.0,13.8,189.0
2075,20120 PINEBROOK BLVD,BEND,OR,97702-2537,(541) 389-8184,44.0234533,-121.3171399,3.1,Night,0.1,0.0,3.0,22.4,224.0
1880,2051 NEWMARK AVE,COOS BAY,OR,97420-4728,(541) 888-5488,43.3895835,-124.2520436,11.9,Night,0.3,0.0,3.0,20.4,224.0
4221,220 N ADAIR ST,CORNELIUS,OR,97113-8404,(503) 207-0626,45.5218276,-123.070049,9.4,Night,10.4,0.0,3.0,11.2,180.0
3146,1840 NW 9TH ST,CORVALLIS,OR,97330-2143,(541) 224-0036,44.586968,-123.258872,9.7,Night,10.7,0.0,61.0,15.0,201.0
2320,901 ROW RIVER RD,COTTAGE GROVE,OR,97424-9558,(541) 942-4600,43.8001753,-123.0434022,9.7,Night,1.5,0.0,3.0,13.4,194.0
2315,321 NE KINGS VALLEY HWY,DALLAS,OR,97338-9702,(503) 623-0490,44.9318016,-123.3068364,9.4,Night,27.7,0.0,3.0,13.8,187.0
5424,11500 HANNON RD,EAGLE POINT,OR,97524-9598,(541) 826-2210,42.4694849,-122.8140322,9.2,Night,0.6,0.0,3.0,6.3,103.0
2538,1040 GREEN ACRES RD,EUGENE,OR,97408-6501,(541) 343-6977,44.0910024,-123.0937053,10.0,Night,2.4,0.0,3.0,15.7,200.0
3258,4550 W 11TH AVE,EUGENE,OR,97402-5414,(541) 344-2030,44.0459169,-123.1694192,10.0,Night,1.0,0.0,3.0,21.3,210.0
1834,135 NE TERRY LN,GRANTS PASS,OR,97526-4801,(541) 471-2822,42.4337652,-123.3021259,9.5,Night,1.9,0.0,3.0,8.7,45.0
3178,2444 E POWELL BLVD,GRESHAM,OR,97080-1311,(503) 492-4725,45.4927637,-122.408199,9.0,Night,13.3,0.0,61.0,11.5,212.0
5627,3900 W POWELL BLVD,GRESHAM,OR,97030-6048,(503) 405-1478,45.4888719,-122.4721849,9.4,Night,12.0,0.0,61.0,15.4,217.0
5440,10000 SE 82ND AVE,HAPPY VALLEY,OR,97086-2304,(503) 788-4748,45.4508787,-122.5758621,9.6,Night,10.3,0.0,63.0,16.5,216.0
1817,1350 N 1ST ST,HERMISTON,OR,97838-1102,(541) 567-4854,45.850628,-119.2865375,8.5,Night,0.8,0.0,51.0,11.8,207.0
2590,7650 NE SHALEEN ST,HILLSBORO,OR,97006-6764,(503) 268-6919,45.5159987,-122.8983772,9.5,Night,7.4,0.0,3.0,14.8,193.0
1876,2700 WASCO ST,HOOD RIVER,OR,97031-1049,(541) 387-2300,45.7113501,-121.5388031,6.5,Night,13.1,0.0,63.0,7.4,14.0
1772,3600 WASHBURN WAY,KLAMATH FALLS,OR,97603-4539,(541) 885-6890,42.1926194,-121.7611703,4.0,Night,0.0,0.0,3.0,10.2,252.0
1889,11619 ISLAND AVE,LA GRANDE,OR,97850-8459,(541) 963-6783,45.3366869,-118.0610253,4.5,Night,0.2,0.0,3.0,4.1,105.0
1775,3290 S SANTIAM HWY,LEBANON,OR,97355-3737,(541) 258-7400,44.5166942,-122.9006816,10.0,Night,3.9,0.0,61.0,23.7,216.0
1843,2375 NE HIGHWAY 99W,MCMINNVILLE,OR,97128-9201,(503) 434-9233,45.2287426,-123.1732187,9.6,Night,7.1,0.0,51.0,13.0,199.0
2069,1360 CENTER DR,MEDFORD,OR,97501-7941,(541) 772-2060,42.3107921,-122.8572231,7.9,Night,0.2,0.0,3.0,5.8,94.0
5839,3615 CRATER LAKE HWY,MEDFORD,OR,97504-9259,(541) 227-5396,42.3675324,-122.8602883,9.0,Night,0.9,0.0,3.0,5.1,141.0
3144,15600 SE MCLOUGHLIN BLVD,MILWAUKIE,OR,97267-3857,(503) 303-6755,45.4105881,-122.6262498,9.6,Night,11.7,0.0,53.0,15.1,213.0
1925,160 NW 25TH ST,NEWPORT,OR,97365-1637,(541) 265-6560,44.6566065,-124.0543892,11.8,Night,4.7,0.0,53.0,24.8,246.0
1951,1775 E IDAHO AVE,ONTARIO,OR,97914-3009,(541) 889-7400,44.0279316,-116.9384591,4.8,Night,2.0,0.0,1.0,11.3,121.0
2492,2203 SW COURT AVE,PENDLETON,OR,97801-1896,(541) 966-9970,45.6688654,-118.8100382,7.7,Night,1.4,0.0,51.0,5.8,360.0
2243,300 NW OAKTREE LN,REDMOND,OR,97756-1694,(541) 923-5972,44.268862,-121.266414,5.2,Night,0.0,0.0,3.0,22.3,218.0
2477,2125 NW STEWART PKWY,ROSEBURG,OR,97471-1693,(541) 957-8550,43.2354013,-123.3688266,10.1,Night,1.2,0.0,53.0,11.0,203.0
2422,2295 GABLE RD,SAINT HELENS,OR,97051-3005,(503) 366-5866,45.8475864,-122.8310787,9.1,Night,12.3,0.0,63.0,6.4,142.0
1784,3025 LANCASTER DR NE,SALEM,OR,97305-1348,(503) 378-7424,44.9651099,-122.9866429,9.9,Night,11.1,0.0,3.0,24.3,205.0
1920,5250 COMMERCIAL ST SE,SALEM,OR,97306-1018,(503) 378-1336,44.8781635,-123.0251009,9.2,Night,12.3,0.0,3.0,23.5,207.0
5368,1940 TURNER RD SE,SALEM,OR,97302-2003,(503) 391-0394,44.9148479,-122.9961337,9.7,Night,9.9,0.0,3.0,22.7,203.0
4176,21320 SW LANGER FARMS PKWY,SHERWOOD,OR,97140-9105,(503) 825-4050,45.3655266,-122.8337393,9.6,Night,12.6,0.0,51.0,11.9,205.0
3239,2659 OLYMPIC ST,SPRINGFIELD,OR,97477-3473,(541) 744-3004,44.0575832,-122.9890449,9.0,Night,0.5,0.0,51.0,3.0,194.0
4178,2730 GATEWAY ST,SPRINGFIELD,OR,97477-7705,(541) 632-7087,44.0700818,-123.04721,9.7,Night,1.0,0.0,3.0,10.5,186.0
5935,7600 SW DARTMOUTH ST,TIGARD,OR,97223-8181,(503) 268-5270,45.4324864,-122.753632,9.6,Night,9.8,0.0,53.0,14.4,212.0
5861,1791 SE ENSIGN LN,WARRENTON,OR,97146-7410,(503) 861-0644,46.125267,-123.905174,10.7,Night,4.9,0.0,3.0,17.7,232.0
5994,19133 WILLAMETTE DR,WEST LINN,OR,97068-2019,(503) 303-1094,45.3863812,-122.6419341,9.6,Night,14.7,0.0,51.0,20.0,218.0
2927,23500 NE SANDY BLVD,WOOD VILLAGE,OR,97060-9653,(503) 665-9200,45.541031,-122.4207568,9.0,Night,8.0,0.0,51.0,4.1,128.0
1793,3002 STACEY ALLISON WAY,WOODBURN,OR,97071-2904,(503) 981-9622,45.1480351,-122.8802841,9.7,Night,12.9,0.0,61.0,14.1,218.0
2641,1091 MILLCREEK RD,ALLENTOWN,PA,18106-9157,(610) 530-1400,40.563187,-75.583308,20.3,Night,0.0,0.0,3.0,17.4,218.0
2049,2600 PLANK ROAD COMM,ALTOONA,PA,16602-0000,(814) 949-8980,40.478203,-78.403509,18.0,Night,0.6,0.0,3.0,9.1,187.0
4643,1500 ECONOMY WAY,BADEN,PA,15005-0000,(724) 390-9016,40.6582755,-80.2265635,19.8,Night,1.0,0.0,3.0,25.8,237.0
3223,100 CHIPPEWA TOWN CTR,BEAVER FALLS,PA,15010-1204,(724) 843-1100,40.7822922,-80.3836897,18.4,Night,0.7,0.0,3.0,24.9,236.0
5239,567 ROUTE 100 N,BECHTELSVILLE,PA,19505-9263,(610) 367-1005,40.37776,-75.627339,20.0,Night,0.0,0.0,3.0,16.2,212.0
2420,100 SARA WAY,BELLE VERNON,PA,15012-1963,(724) 929-2424,40.1385516,-79.8455312,21.1,Night,0.4,0.0,3.0,23.4,233.0
5381,5055 LIBRARY RD,BETHEL PARK,PA,15102-2813,(412) 831-0459,40.3411602,-80.0257013,20.0,Night,0.1,0.0,3.0,25.5,234.0
3563,3926 LINDEN ST,BETHLEHEM,PA,18020-5846,(610) 867-1300,40.6730704,-75.3415891,18.7,Night,0.0,0.0,3.0,9.1,189.0
5356,300 RESORT PLAZA DR,BLAIRSVILLE,PA,15717-7934,(724) 459-3349,40.443171,-79.227158,21.2,Night,0.9,0.0,3.0,19.1,224.0
1794,100 LUNGER DR,BLOOMSBURG,PA,17815-8330,(570) 389-5750,41.0089508,-76.4851596,19.3,Night,0.0,0.0,3.0,13.6,202.0
3252,605 CONCHESTER HWY,BOOTHWYN,PA,19061-3147,(610) 494-2535,39.8524362,-75.4495229,19.3,Night,0.1,0.0,3.0,17.7,207.0
3514,50 FOSTER BROOK BLVD,BRADFORD,PA,16701-3276,(814) 368-4600,41.9786488,-78.6088901,18.2,Night,3.7,0.0,3.0,15.1,220.0
1885,400 BUTLER CMNS,BUTLER,PA,16001-2496,(724) 282-4060,40.876055,-79.943371,18.3,Night,1.4,0.0,3.0,22.4,233.0
5888,3400 HARTZDALE DR,CAMP HILL,PA,17011-7213,(717) 409-3102,40.224879,-76.9284327,20.5,Night,0.0,0.0,0.0,13.8,208.0
2574,60 NOBLE BLVD,CARLISLE,PA,17013-4119,(717) 258-1250,40.1893587,-77.1943407,18.3,Night,0.0,0.0,0.0,5.4,278.0
5040,2200 WASHINGTON PIKE,CARNEGIE,PA,15106-3750,(412) 429-1285,40.3866893,-80.0962888,20.6,Night,1.0,0.0,3.0,21.8,232.0
1850,1730 LINCOLN WAY E,CHAMBERSBURG,PA,17202-3348,(717) 264-2300,39.920766,-77.60692,19.4,Night,0.1,0.0,3.0,16.6,185.0
2540,63 PERKINS RD,CLARION,PA,16214-8527,(814) 226-0809,41.1883597,-79.3967584,18.4,Night,1.9,0.0,3.0,18.8,234.0
2129,100 SUPERCENTER DR,CLEARFIELD,PA,16830-6027,(814) 765-8089,41.0318354,-78.4013806,19.9,Night,0.7,0.0,3.0,10.6,215.0
2481,9300 STATE ROUTE 61,COAL TOWNSHIP,PA,17866-4178,(570) 648-6700,40.790002,-76.496259,20.0,Night,0.0,0.0,2.0,16.1,200.0
5379,1450 MORRELL AVE,CONNELLSVILLE,PA,15425-3809,(724) 626-4470,40.0040982,-79.6029456,21.0,Night,0.3,0.0,3.0,14.8,223.0
2909,961 E COLUMBUS AVE,CORRY,PA,16407-9163,(814) 663-8070,41.9324697,-79.6122556,17.0,Night,1.2,0.0,3.0,20.9,224.0
2597,10 KIMBERLY LN,CRANBERRY,PA,16319-3134,(814) 678-0037,41.3487779,-79.7181336,18.0,Night,0.6,0.0,3.0,22.4,237.0
1770,20245 ROUTE 19,CRANBERRY TOWNSHIP,PA,16066-6101,(724) 772-4550,40.6874866,-80.1050622,19.7,Night,0.9,0.0,3.0,24.1,232.0
3228,6700 HOLLYWOOD BLVD,DELMONT,PA,15626-2401,(724) 468-6274,40.3990813,-79.5902378,20.8,Night,0.3,0.0,3.0,26.1,232.0
1884,900 COMMERCE BLVD,DICKSON CITY,PA,18519-1767,(570) 383-2354,41.4656385,-75.6423789,18.3,Night,0.0,0.0,3.0,6.5,177.0
1769,20 INDUSTRIAL DR,DU BOIS,PA,15801-3842,(814) 375-5000,41.1280752,-78.7374718,20.1,Night,1.7,0.0,3.0,18.7,230.0
4348,200 COMMERCE DR,DUNCANSVILLE,PA,16635-4845,(814) 693-0531,40.3703311,-78.4328705,18.8,Night,0.6,0.0,3.0,11.4,156.0
3810,620 GRAVEL PIKE,EAST GREENVILLE,PA,18041-2130,(215) 679-2782,40.4105151,-75.5115453,18.3,Night,0.0,0.0,3.0,8.8,168.0
2368,355 LINCOLN AVE,EAST STROUDSBURG,PA,18301-2814,(570) 424-8415,40.9899152,-75.1828344,17.9,Night,0.0,0.0,3.0,5.4,222.0
2252,3722 EASTON NAZARETH HWY,EASTON,PA,18045-8340,(610) 250-8603,40.711415,-75.281639,18.9,Night,0.0,0.0,3.0,10.4,200.0
2663,300 WALMART DR,EBENSBURG,PA,15931-4212,(814) 471-0200,40.4754222,-78.750431,17.5,Night,2.7,0.0,3.0,10.0,221.0
2830,EDDYSTONE CROSSING,EDDYSTONE,PA,19022-0000,(610) 447-1860,39.85407,-75.341663,19.9,Night,0.0,0.0,3.0,14.7,208.0
3253,108 WASHINGTON TOWNE BLVD N,EDINBORO,PA,16412-1254,(814) 734-0900,41.877467,-80.17318,17.5,Night,1.0,0.0,3.0,27.7,238.0
3412,200 KOCHER LN,ELIZABETHVILLE,PA,17023-8716,(717) 362-3696,40.5559191,-76.7922612,20.8,Night,0.0,0.0,3.0,20.4,188.0
3501,100 CROSSINGS BLVD,ELVERSON,PA,19520-9069,(610) 913-2000,40.1531971,-75.8626267,20.1,Night,0.0,0.0,3.0,23.8,207.0
2340,890 E MAIN ST,EPHRATA,PA,17522-2562,(717) 721-6680,40.1673526,-76.1527343,19.9,Night,0.0,0.0,3.0,16.4,199.0
2278,1825 DOWNS DR,ERIE,PA,16509-7303,(814) 864-7330,42.0522721,-80.0797083,17.9,Night,0.4,0.0,3.0,27.5,236.0
2561,5350 W RIDGE RD,ERIE,PA,16506-1222,(814) 835-0556,42.0684382,-80.196164,19.1,Night,0.3,0.0,3.0,26.1,232.0
5445,2711 ELM ST,ERIE,PA,16504-2935,(814) 459-3625,42.1234939,-80.0419305,18.9,Night,1.4,0.0,3.0,27.7,231.0
4404,50 NEWBERRY PKWY,ETTERS,PA,17319-8966,(717) 932-4384,39.804514,-76.964526,20.2,Night,0.1,0.0,3.0,25.4,201.0
1684,72 BEDFORD SQ,EVERETT,PA,15537-6934,(814) 623-3332,40.0232003,-78.4471532,18.7,Night,0.1,0.0,3.0,10.5,221.0
2167,270 INDIAN RUN ST,EXTON,PA,19341-3706,(484) 875-9053,40.0228812,-75.6332001,20.1,Night,0.0,0.0,3.0,21.4,205.0
1537,1270 YORK RD,GETTYSBURG,PA,17325-7562,(717) 334-2000,39.8432626,-77.2045504,18.7,Night,0.0,0.0,0.0,16.5,196.0
2603,300 WALMART DR,GIBSONIA,PA,15044-9610,(724) 449-2700,40.6230235,-79.9466124,19.2,Night,0.5,0.0,3.0,21.5,239.0
5495,50 N MACDADE BLVD,GLENOLDEN,PA,19036-1223,(610) 583-2682,39.9075222,-75.2921977,20.1,Night,0.0,0.0,3.0,17.1,208.0
2059,2200 GREENGATE CENTRE CIR,GREENSBURG,PA,15601-1290,(724) 830-2440,40.3090864,-79.5814984,20.4,Night,0.1,0.0,3.0,22.4,233.0
2674,45 WILLIAMSON RD,GREENVILLE,PA,16125-1253,(724) 589-0211,41.4149976,-80.3592983,17.1,Night,0.8,0.0,3.0,24.0,229.0
2008,1566 W MAIN STREET EXT,GROVE CITY,PA,16127-4432,(724) 458-5877,41.169469,-80.113639,17.6,Night,0.7,0.0,3.0,27.9,237.0
4612,1800 TILDEN RIDGE,HAMBURG,PA,19526-8181,(484) 668-4001,40.540258,-76.058143,20.0,Night,0.0,0.0,3.0,16.5,224.0
1823,495 EISENHOWER DR,HANOVER,PA,17331-5215,(717) 632-8444,39.8235747,-76.9750555,19.8,Night,0.0,0.0,3.0,21.6,206.0
5469,1881 BALTIMORE PIKE,HANOVER,PA,17331-9605,(717) 630-8211,39.7609833,-76.9620223,19.8,Night,0.1,0.0,3.0,27.1,202.0
3281,5741 BUFFALO RD,HARBORCREEK,PA,16421-1626,(814) 899-6255,42.1602282,-79.9680565,18.7,Night,1.3,0.0,3.0,25.5,230.0
2236,651 MAIN ST,HARLEYSVILLE,PA,19438-1772,(215) 513-0205,40.2865272,-75.3923778,18.0,Night,0.0,0.0,3.0,9.5,191.0
1591,6535 GRAYSON RD,HARRISBURG,PA,17111-5141,(717) 561-8402,40.2616222,-76.7730045,19.9,Night,0.0,0.0,0.0,12.7,209.0
2445,1515 BETHLEHEM PIKE,HATFIELD,PA,19440-1301,(215) 997-2929,40.2912761,-75.2648618,19.1,Night,0.0,0.0,3.0,12.8,212.0
2255,761 AIRPORT RD,HAZLE TOWNSHIP,PA,18202-3282,(570) 454-8322,40.9891053,-75.9955804,19.1,Night,0.1,0.0,1.0,24.3,204.0
1568,1275 N HERMITAGE RD,HERMITAGE,PA,16148-3110,(724) 346-5940,41.2498448,-80.4529162,17.3,Night,0.3,0.0,3.0,22.0,235.0
2480,723A OLD WILLOW AVE,HONESDALE,PA,18431-4217,(570) 251-9543,41.5581364,-75.2442306,17.4,Night,0.1,0.0,3.0,9.5,191.0
5470,6716 TOWNE CENTER BLVD,HUNTINGDON,PA,16652-6933,(814) 644-6910,40.4906576,-78.0442192,19.3,Night,0.1,0.0,3.0,10.0,218.0
2318,3100 OAKLAND AVE,INDIANA,PA,15701-3240,(724) 349-3565,40.6014352,-79.1968529,20.5,Night,0.5,0.0,3.0,21.4,224.0
1935,150 TOWN CENTRE DR,JOHNSTOWN,PA,15904-2858,(814) 266-6996,40.2763088,-78.8454479,18.0,Night,1.0,0.0,3.0,16.9,236.0
3541,516 SCHOOL HOUSE RD,KENNETT SQUARE,PA,19348-1742,(610) 444-2268,39.8606255,-75.6900429,19.4,Night,0.1,0.0,3.0,22.7,205.0
4687,275 N GULPH RD,KING OF PRUSSIA,PA,19406-2803,(610) 768-0530,40.0836365,-75.3985629,21.3,Night,0.0,0.0,3.0,24.2,208.0
1820,1 HILLTOP PLZ,KITTANNING,PA,16201-8905,(724) 543-2023,40.8144699,-79.5415709,19.6,Night,2.3,0.0,51.0,22.8,235.0
2334,2034 LINCOLN HWY E,LANCASTER,PA,17602-3329,(717) 390-1738,40.0296273,-76.2411516,20.6,Night,0.0,0.0,3.0,18.1,201.0
5200,2030 FRUITVILLE PIKE,LANCASTER,PA,17601-3998,(717) 581-0200,40.0736783,-76.3250649,20.6,Night,0.0,0.0,3.0,15.6,203.0
2502,100 COLONY LN,LATROBE,PA,15650-9073,(724) 537-0928,,,,,,,,,
2023,1355 E LEHMAN ST,LEBANON,PA,17046-8337,(717) 228-1221,40.3502967,-76.3908592,20.5,Night,0.1,0.0,3.0,19.2,214.0
2169,1731 BLAKESLEE BOULEVARD DR E,LEHIGHTON,PA,18235-9824,(570) 386-3356,40.8097586,-75.7383478,16.4,Night,0.0,0.0,3.0,2.5,262.0
2068,180 LEVITTOWN CTR,LEVITTOWN,PA,19055-2601,(215) 949-6600,40.1420481,-74.8226327,20.6,Night,0.1,0.0,3.0,16.1,209.0
1644,120 AJK BLVD,LEWISBURG,PA,17837-7491,(570) 522-8200,40.9915221,-76.8789075,17.4,Night,0.0,0.0,3.0,8.4,220.0
1607,10180 US HIGHWAY 522 S,LEWISTOWN,PA,17044-8938,(717) 242-6201,40.662359,-77.457782,19.3,Night,0.0,0.0,3.0,9.2,231.0
1945,1169 S MAIN ST,MANSFIELD,PA,16933-9537,(570) 662-1115,41.7836633,-77.0667695,19.6,Night,0.0,0.0,3.0,14.0,198.0
1656,16086 CONNEAUT LAKE RD,MEADVILLE,PA,16335-3884,(814) 724-6267,41.6223452,-80.2139067,17.2,Night,0.1,0.0,3.0,25.8,242.0
1886,6520 CARLISLE PIKE STE 550,MECHANICSBURG,PA,17050-5257,(717) 691-3150,40.2475143,-77.027248,18.2,Night,0.0,0.0,0.0,6.2,234.0
2064,220 ROUTE 6 AND 209,MILFORD,PA,18337-9454,(570) 491-4940,41.322577,-74.803067,17.3,Night,0.0,0.0,2.0,9.9,190.0
2528,167 HOGAN BLVD,MILL HALL,PA,17751-1902,(570) 893-4627,41.1167222,-77.480677,18.3,Night,0.0,0.0,3.0,8.4,230.0
1883,3942 BRODHEAD RD,MONACA,PA,15061-3028,(724) 773-2929,40.678573,-80.3015114,19.3,Night,0.6,0.0,3.0,23.7,237.0
1887,1015 N LOYALSOCK AVE,MONTOURSVILLE,PA,17754-1065,(570) 368-5450,41.2618762,-76.9198653,20.1,Night,0.3,0.0,3.0,2.6,34.0
4644,7500 UNIVERSITY BOULEVARD,MOON TOWNSHIP,PA,15108-2532,(412) 893-0143,40.5155566,-80.2238642,19.2,Night,0.5,0.0,3.0,24.1,243.0
2611,2100 SUMMIT RIDGE PLZ,MOUNT PLEASANT,PA,15666-1992,(724) 542-7300,40.128523,-79.547455,20.5,Night,0.0,0.0,3.0,19.1,223.0
2365,3271 ROUTE 940,MOUNT POCONO,PA,18344-1150,(570) 895-4700,41.12039,-75.377506,18.7,Night,0.0,0.0,3.0,24.0,221.0
3738,100 HIGHLANDS MALL,NATRONA HEIGHTS,PA,15065-1971,(724) 226-6949,40.6470413,-79.7129723,19.9,Night,1.0,0.0,3.0,20.5,242.0
2287,2501 W STATE ST,NEW CASTLE,PA,16101-1039,(724) 657-9390,41.0089174,-80.3944692,18.3,Night,0.3,0.0,3.0,24.6,238.0
3475,650 S TROOPER RD,NORRISTOWN,PA,19403-3416,(610) 631-6750,40.1273827,-75.4014807,20.7,Night,0.0,0.0,3.0,16.8,211.0
5241,915 MILLS DR,NORTH HUNTINGDON,PA,15642-4129,(724) 382-3160,40.3162645,-79.6862567,20.7,Night,0.6,0.0,3.0,23.7,237.0
2588,100 WALMART DR,NORTH VERSAILLES,PA,15137-1535,(412) 816-0301,40.3875302,-79.8234568,19.9,Night,0.0,0.0,3.0,21.2,235.0
5795,800 COMMONS DR,OXFORD,PA,19363-1247,(484) 702-7206,39.98157,-75.933754,18.6,Night,0.0,0.0,3.0,21.9,203.0
2888,100 NO LONDONDERRY SQUARE,PALMYRA,PA,17078-3904,(717) 838-0800,40.319316,-76.565989,20.0,Night,0.0,0.0,1.0,15.9,213.0
2945,100 COMMONS DR,PARKESBURG,PA,19365-2150,(610) 857-0500,39.980016,-75.9341439,18.6,Night,0.0,0.0,3.0,21.9,203.0
2141,1675 S CHRISTOPHER COLUMBUS BLVD,PHILADELPHIA,PA,19148-1402,(215) 468-4220,39.926222,-75.141272,20.7,Night,0.0,0.0,3.0,19.0,207.0
2650,4301 BYBERRY ROAD,PHILADELPHIA,PA,19154-3112,(215) 281-3159,40.0833005,-74.9624781,20.6,Night,0.2,0.0,3.0,19.2,208.0
5103,4600 ROOSEVELT BLVD BLDG G,PHILADELPHIA,PA,19124-2340,(215) 288-0700,40.0287,-75.100012,20.6,Night,0.1,0.0,1.0,19.0,207.0
5130,9745 ROOSEVELT BLVD STE A,PHILADELPHIA,PA,19114-1014,(215) 698-0350,40.0822008,-75.0226458,20.5,Night,0.2,0.0,3.0,18.7,208.0
5891,2200 WHEATSHEAF LN,PHILADELPHIA,PA,19137-1019,(215) 613-2236,39.9994783,-75.0915554,20.9,Night,0.0,0.0,1.0,19.0,207.0
2300,250 SUMMIT PARK DR,PITTSBURGH,PA,15275-1202,(412) 788-9079,40.4473701,-80.1762808,19.9,Night,0.8,0.0,3.0,23.0,243.0
2543,390 ROUTE 315 HWY,PITTSTON,PA,18640-3903,(570) 883-9400,41.314282,-75.7567315,20.1,Night,0.0,0.0,3.0,12.0,231.0
2263,233 SHOEMAKER RD,POTTSTOWN,PA,19464-6441,(610) 327-3204,40.2540315,-75.6655814,19.7,Night,0.1,0.0,3.0,8.7,204.0
2664,21920 ROUTE 119,PUNXSUTAWNEY,PA,15767-7975,(814) 938-3500,40.903996,-79.009153,19.8,Night,1.1,0.0,3.0,20.7,231.0
2446,195 N WEST END BLVD,QUAKERTOWN,PA,18951-2306,(215) 529-7689,40.4487491,-75.3581574,19.1,Night,0.0,0.0,3.0,16.1,200.0
1777,5900 PERKIOMEN AVE,READING,PA,19606-3635,(610) 582-0505,40.2945817,-75.8396804,21.8,Night,0.0,0.0,3.0,20.7,211.0
2535,500 TERRY RICH BLVD,SAINT CLAIR,PA,17970-1090,(570) 429-1959,40.7274553,-76.1888309,17.2,Night,0.0,0.0,2.0,6.9,242.0
1792,1102 MILLION DOLLAR HWY,SAINT MARYS,PA,15857-2728,(814) 781-1344,41.3916474,-78.5639782,19.1,Night,1.7,0.0,3.0,20.9,226.0
2208,1887 ELMIRA ST,SAYRE,PA,18840-9249,(570) 888-9791,41.9770135,-76.5430762,20.1,Night,0.4,0.0,3.0,16.3,186.0
2185,980 N SUSQUEHANNA TRL,SELINSGROVE,PA,17870-7766,(570) 374-1230,40.8228325,-76.8451121,19.5,Night,0.1,0.0,1.0,11.3,187.0
5358,100 S CONESTOGA DR,SHIPPENSBURG,PA,17257-9031,(717) 532-4240,40.065462,-77.49969,20.0,Night,0.1,0.0,3.0,24.4,196.0
2519,698 SHREWSBURY COMMONS AVE,SHREWSBURY,PA,17361-1617,(717) 235-6363,39.7676888,-76.6680187,19.7,Night,0.0,0.0,3.0,25.0,208.0
1765,2028 N CENTER AVE,SOMERSET,PA,15501-7436,(814) 443-6962,40.0514634,-79.0701905,17.8,Night,2.7,0.0,3.0,21.4,229.0
5881,400 S STATE RD,SPRINGFIELD,PA,19064-1243,(610) 605-3154,39.938137,-75.350687,18.8,Night,0.0,0.0,3.0,16.8,203.0
1640,1665 N ATHERTON ST,STATE COLLEGE,PA,16803-1417,(814) 237-8401,40.8100132,-77.8975516,19.0,Night,0.0,0.0,3.0,14.9,217.0
2230,373 BENNER PIKE,STATE COLLEGE,PA,16801-7304,(814) 235-9306,40.8323466,-77.8089208,20.6,Night,0.1,0.0,3.0,17.7,200.0
3634,35 PLAZA DR,TAMAQUA,PA,18252-4405,(570) 668-2054,40.8369854,-75.9885439,16.7,Night,0.0,0.0,1.0,8.4,205.0
3838,2010 VILLAGE CENTER DR,TARENTUM,PA,15084-3850,(724) 274-0260,40.5646895,-79.8043791,20.3,Night,1.3,0.0,3.0,22.0,235.0
4276,1325 MAIN,TAYLOR,PA,18517-1316,(570) 309-3510,41.37543,-75.725244,19.6,Night,0.0,0.0,3.0,12.3,220.0
2614,5370 ALLENTOWN PIKE,TEMPLE,PA,19560-1200,(610) 939-0601,40.4154218,-75.9228545,20.9,Night,0.0,0.0,3.0,15.5,193.0
5360,11415 HYDETOWN RD,TITUSVILLE,PA,16354-1333,(814) 827-0850,41.633379,-79.6989085,17.5,Night,2.3,0.0,3.0,20.7,235.0
5131,3461 HORIZON BLVD,TREVOSE,PA,19053-4967,(215) 942-4005,40.157764,-74.901032,20.6,Night,0.1,0.0,3.0,19.2,210.0
2024,808 HUNTER HWY,TUNKHANNOCK,PA,18657-8071,(570) 836-8064,41.5235191,-75.9479707,21.3,Night,0.0,0.0,3.0,18.7,191.0
2019,355 WALMART DR,UNIONTOWN,PA,15401-8424,(724) 438-3344,39.9144173,-79.7566604,20.5,Night,0.1,0.0,3.0,18.8,225.0
2096,100 E STREET RD,WARMINSTER,PA,18974-3400,(215) 442-5670,40.194925,-75.079297,20.4,Night,0.0,0.0,3.0,19.5,208.0
3429,2901 MARKET ST,WARREN,PA,16365-5216,(814) 723-2640,41.881521,-79.1502347,17.9,Night,3.7,0.0,3.0,16.3,235.0
5649,299 VALLEY GATE DR,WARRINGTON,PA,18976-2745,(215) 488-9026,40.2204227,-75.1380079,20.4,Night,0.0,0.0,3.0,19.0,207.0
1739,30 TRINITY POINT DR,WASHINGTON,PA,15301-2974,(724) 229-4020,40.1826567,-80.221674,19.4,Night,0.5,0.0,55.0,25.1,243.0
3633,12751 WASHINGTON TOWNSHIP BLVD,WAYNESBORO,PA,17268-8502,(717) 762-2282,39.7427724,-77.528997,19.4,Night,0.0,0.0,2.0,15.8,207.0
5446,405 MURTHA DR,WAYNESBURG,PA,15370-7010,(724) 627-3496,39.8938539,-80.1264803,19.9,Night,0.3,0.0,3.0,20.8,233.0
4501,134 DANIEL KENDALL DR,WEST BROWNSVILLE,PA,15417-8303,(724) 364-4076,40.026328,-79.8989661,20.3,Night,0.0,0.0,1.0,18.6,229.0
2281,2351 CENTURY DR,WEST MIFFLIN,PA,15122-2430,(412) 655-3404,40.3407928,-79.9462566,19.8,Night,1.2,0.0,3.0,22.3,239.0
2145,2601 MACARTHUR RD,WHITEHALL,PA,18052-3818,(610) 266-9645,40.6450798,-75.4874767,18.8,Night,0.0,0.0,3.0,9.4,182.0
1623,2150 WILKES BARRE TWNSP MKTPL,WILKES BARRE,PA,18702-6059,(570) 821-6180,41.245429,-75.871228,21.6,Night,0.0,0.0,3.0,15.1,208.0
3564,2101 BLAIR MILL RD,WILLOW GROVE,PA,19090-1751,(215) 830-8370,40.1585454,-75.139374,20.3,Night,0.0,0.0,3.0,19.0,207.0
5229,1000 EASTON RD STE 200,WYNCOTE,PA,19095-2900,(215) 887-6737,40.0821005,-75.1686923,20.0,Night,0.1,0.0,1.0,20.9,207.0
1670,1135 BERKSHIRE BLVD,WYOMISSING,PA,19610-1243,(610) 376-5848,40.3428533,-75.9786085,21.3,Night,0.0,0.0,3.0,21.7,204.0
1529,2801 E MARKET ST BLDG B,YORK,PA,17402-2406,(717) 755-1600,39.9761177,-76.6728486,20.9,Night,0.0,0.0,3.0,22.2,209.0
2205,1000 TOWN CENTER DRIVE,YORK,PA,17408-4609,(717) 764-1485,39.9709634,-76.7750156,20.6,Night,0.0,0.0,3.0,18.8,209.0
2302,CARR. #2 KM. 56.6,BARCELONETA,PR,00617-0000,(787) 970-8100,26.6495,-98.34557,24.8,Night,0.0,0.0,2.0,9.3,118.0
2501,501 AVE WEST MAIN,BAYAMON,PR,00961-3867,(787) 269-2200,18.4062566,-66.1744024,23.0,Night,0.0,0.0,80.0,2.6,196.0
2449,RAFAEL CORDERO AVE #301,CAGUAS,PR,00725-0000,(787) 653-1376,26.6495,-98.34557,24.8,Night,0.0,0.0,2.0,9.3,118.0
5802,PLAZA CANOVANAS HWY 3 INT NEW RT 66,CANOVANAS,PR,00729-0000,(787) 957-2700,26.6495,-98.34557,24.8,Night,0.0,0.0,2.0,9.3,118.0
2423,BO SAN ANTON CARR 3,CAROLINA,PR,00987-0000,(787) 257-0082,26.6495,-98.34557,24.8,Night,0.0,0.0,2.0,9.3,118.0
2721,PLAZA CAYEY 102 8000 AVE. JESUS T. PIERO,CAYEY,PR,00736-0000,(787) 738-7215,18.1245786,-66.13404,22.2,Night,0.0,0.0,3.0,6.1,28.0
1822,150 CARR 940 STE 180,FAJARDO,PR,00738-3653,(787) 860-1020,26.6495,-98.34557,24.8,Night,0.0,0.0,2.0,9.3,118.0
2072,AVE. LOS VETERANOS KM 134.7,GUAYAMA,PR,00784-0000,(787) 686-9400,26.6495,-98.34557,24.8,Night,0.0,0.0,2.0,9.3,118.0
1854,PLAZA DEL MAR SHOPPING CENTER,HATILLO,PR,00659-0000,(787) 544-4851,26.6495,-98.34557,24.8,Night,0.0,0.0,2.0,9.3,118.0
2240,RIO ABAJO,HUMACAO,PR,00791-0000,(787) 852-9600,18.1562689,-65.792164,24.0,Night,0.0,0.0,95.0,6.3,31.0
2085,ARENA BAJA,ISABELA,PR,00662-0000,(787) 830-3030,26.6495,-98.34557,24.8,Night,0.0,0.0,2.0,9.3,118.0
3716,PLAZA MONTE REAL,MANATI,PR,00674-0000,(787) 884-3400,18.4398954,-66.4572273,24.5,Night,0.0,0.0,95.0,10.0,111.0
2067,975 AVE HOSTOS STE 2100,MAYAGUEZ,PR,00680-1252,(787) 265-1099,26.6495,-98.34557,24.8,Night,0.0,0.0,2.0,9.3,118.0
2026,3305 AVE.BARAMAYA SUITE 100,PONCE,PR,00728-0000,(787) 709-4026,26.6495,-98.34557,24.8,Night,0.0,0.0,2.0,9.3,118.0
5793,"333 PR-14, COTO LAUREL",PONCE,PR,00780-2157,(787) 842-0420,18.0497324,-66.5450104,23.9,Night,0.0,0.0,3.0,5.7,18.0
5803,701 AVENIDA ROBERTO H TODD,SAN JUAN,PR,00907-0000,(787) 641-5600,18.4532537,-66.0735766,25.4,Night,0.0,0.0,95.0,9.9,109.0
3693,CARR ESTATAL #153 KM 7.2,SANTA ISABEL,PR,00757-0000,(787) 971-1000,26.6495,-98.34557,24.8,Night,0.0,0.0,2.0,9.3,118.0
2346,CARR #2 SECTOR LA VIRGENCITA INTER,TOA BAJA,PR,00949-0000,(787) 641-5656,26.6495,-98.34557,24.8,Night,0.0,0.0,2.0,9.3,118.0
2283,650 CENTRE OF NEW ENGLAND BLVD,COVENTRY,RI,02816-6081,(401) 823-7780,41.6620997,-71.5689928,17.6,Night,0.0,0.0,3.0,21.3,217.0
1873,1776 PLAINFIELD PIKE,CRANSTON,RI,02921-2042,(401) 946-2030,41.7881938,-71.498326,18.3,Night,0.1,0.0,1.0,25.8,221.0
2885,199 CONNELL HWY,NEWPORT,RI,02840-1091,(401) 848-5167,41.5111148,-71.3165148,16.3,Night,0.0,0.0,2.0,10.9,188.0
2261,1031 TEN ROD RD,NORTH KINGSTOWN,RI,02852-4125,(401) 294-0025,41.5856321,-71.4910457,17.3,Night,0.0,0.0,3.0,18.9,220.0
2225,7 DOWLING VILLAGE BLVD,NORTH SMITHFIELD,RI,02896-8266,(401) 766-1961,41.9762452,-71.5053574,17.4,Night,0.1,0.0,3.0,9.7,178.0
3301,51 SILVER SPRING ST,PROVIDENCE,RI,02904-2557,(401) 272-5047,41.8455458,-71.4151444,15.8,Night,0.0,0.0,0.0,9.3,144.0
2373,840 POST RD,WARWICK,RI,02888-6308,(401) 781-2233,41.7527288,-71.4143877,16.1,Night,0.0,0.0,0.0,10.0,193.0
2747,650 BALD HILL RD,WARWICK,RI,02886-1863,(401) 821-1766,41.7233544,-71.4807839,16.7,Night,0.0,0.0,0.0,12.1,217.0
1964,258 POST RD,WESTERLY,RI,02891-2630,(401) 322-0790,41.3546975,-71.8001562,16.4,Night,0.0,0.0,1.0,13.8,229.0
514,2035 WHISKEY RD,AIKEN,SC,29803-7956,(803) 648-9197,33.5179378,-81.71894,17.5,Night,0.0,0.0,0.0,6.4,164.0
4487,3581 RICHLAND AVE W,AIKEN,SC,29801-6311,(803) 648-5551,33.5613075,-81.7672905,18.4,Night,0.0,0.0,0.0,7.1,165.0
396,3812 LIBERTY HWY,ANDERSON,SC,29621-1344,(864) 225-1800,34.554336,-82.6787175,15.1,Night,0.0,0.0,0.0,6.3,156.0
644,651 HIGHWAY 28 BYP,ANDERSON,SC,29624-3009,(864) 261-7420,34.5610138,-82.6882186,15.0,Night,0.0,0.0,0.0,5.2,146.0
4443,2003 E GREENVILLE ST,ANDERSON,SC,29621-1529,(864) 760-6161,34.54509,-82.632837,15.0,Night,0.0,0.0,0.0,5.5,169.0
795,11391 DUNBARTON BLVD,BARNWELL,SC,29812-3033,(803) 259-2000,33.2381589,-81.3922767,17.6,Night,0.0,0.0,0.0,2.9,90.0
1383,350 ROBERT SMALLS PKWY,BEAUFORT,SC,29906-4284,(843) 522-8221,32.4252362,-80.7339771,18.7,Night,0.0,0.0,0.0,5.9,38.0
7181,265 SEA ISLAND PKWY,BEAUFORT,SC,29907-1535,(843) 489-3216,32.4070399,-80.6369297,18.8,Night,0.0,0.0,0.0,5.1,45.0
4457,1250 BENNETTSVILLE SQ,BENNETTSVILLE,SC,29512-6275,(843) 479-0002,34.647908,-79.59162,17.4,Night,0.0,0.0,0.0,8.4,205.0
6395,4 BLUFFTON RD,BLUFFTON,SC,29910-7621,(843) 815-5159,32.2601986,-80.8542598,19.0,Night,0.0,0.0,0.0,4.8,48.0
2806,4000 HWY 9,BOILING SPRINGS,SC,29316-8501,(864) 814-2889,35.0524969,-81.9857747,14.7,Night,0.0,0.0,0.0,7.7,208.0
634,2240 W DEKALB ST,CAMDEN,SC,29020-2069,(803) 425-5746,34.2515997,-80.6497805,17.4,Night,0.0,0.0,0.0,4.5,166.0
5378,1355 KNOX ABBOTT DR,CAYCE,SC,29033-3327,(803) 223-0762,33.9773722,-81.0736635,17.1,Night,0.0,0.0,0.0,3.6,90.0
3222,1286 EIGHTEEN MILE RD,CENTRAL,SC,29630-8605,(864) 639-2525,34.7056521,-82.7623036,14.9,Night,0.0,0.0,2.0,4.3,66.0
1748,3951 W ASHLEY CIR,CHARLESTON,SC,29414-9156,(843) 763-5554,32.8215271,-80.0815617,19.2,Night,0.0,0.0,1.0,4.9,73.0
2348,1231 FOLLY RD,CHARLESTON,SC,29412-4105,(843) 762-9034,32.7205989,-79.9677231,19.1,Night,0.0,0.0,0.0,7.3,81.0
642,1040 CHESTERFIELD HWY,CHERAW,SC,29520-7010,(843) 537-6381,34.701157,-79.931271,17.4,Night,0.0,0.0,0.0,6.9,219.0
1603,1691 J A COCHRAN BYP,CHESTER,SC,29706-2190,(803) 581-6278,34.7000141,-81.1925432,16.7,Night,0.0,0.0,0.0,10.6,190.0
4445,680 OLD GREENVILLE HWY,CLEMSON,SC,29631-0000,(864) 722-6050,34.6967896,-82.8010708,14.9,Night,0.0,0.0,3.0,3.9,68.0
1164,360 HARBISON BLVD,COLUMBIA,SC,29212-2248,(803) 781-0762,34.0745153,-81.1504793,17.4,Night,0.0,0.0,0.0,4.4,145.0
1286,7520 GARNERS FERRY RD,COLUMBIA,SC,29209-2628,(803) 783-1277,33.9641867,-80.9387129,17.5,Night,0.0,0.0,0.0,7.5,125.0
1339,10060 TWO NOTCH RD,COLUMBIA,SC,29223-4396,(803) 736-8123,34.1101931,-80.8866647,17.2,Night,0.0,0.0,0.0,7.6,188.0
2214,5420 FOREST DR,COLUMBIA,SC,29206-5401,(803) 782-0323,34.0218668,-80.9522652,17.2,Night,0.0,0.0,0.0,6.8,162.0
4506,321 KILLIAN RD,COLUMBIA,SC,29203-9607,(803) 754-8884,34.1380822,-80.9664752,16.3,Night,0.0,0.0,0.0,3.3,193.0
5291,1019 OLD BARNWELL RD,COLUMBIA,SC,29170-0000,(803) 821-7049,33.9439251,-81.1691209,16.8,Night,0.0,0.0,0.0,7.9,223.0
586,2709 CHURCH ST STE A,CONWAY,SC,29526-4440,(843) 365-0303,33.857892,-79.091184,16.8,Night,0.0,0.0,0.0,5.7,162.0
4664,151 MYRTLE RIDGE DR,CONWAY,SC,29526-2702,(843) 234-2040,33.777583,-78.989089,17.5,Night,0.0,0.0,0.0,6.8,155.0
7188,251 ANDOVER PL,DARLINGTON,SC,29532-1500,(843) 393-2067,34.2857038,-79.8559775,18.3,Night,0.0,0.0,0.0,7.1,195.0
627,805 ENTERPRISE RD,DILLON,SC,29536-7821,(843) 841-9800,34.4359508,-79.3766081,17.5,Night,0.0,0.0,0.0,7.6,175.0
631,115 ROLLING HILLS CIR,EASLEY,SC,29640-7109,(864) 859-8595,34.8287209,-82.5487567,15.0,Night,0.0,0.0,0.0,4.1,232.0
630,230 N BELTLINE DR,FLORENCE,SC,29501-7403,(843) 664-2020,34.1932716,-79.821662,17.8,Night,0.0,0.0,0.0,6.8,177.0
2703,2014 S IRBY ST,FLORENCE,SC,29505-3420,(843) 292-0862,34.1469513,-79.7703513,17.8,Night,0.0,0.0,0.0,7.2,177.0
3638,804 S CASHUA DRIVE,FLORENCE,SC,29501-6311,(843) 269-9979,34.174603,-79.810763,17.8,Night,0.0,0.0,0.0,6.8,177.0
3359,500 N DOBYS BRIDGE ROAD,FORT MILL,SC,29715-6815,(803) 228-6049,35.0059284,-80.9304892,16.0,Night,0.0,0.0,0.0,9.5,189.0
638,165 WALTON DR,GAFFNEY,SC,29341-1268,(864) 487-3769,35.0872774,-81.6659322,16.0,Night,0.0,0.0,0.0,8.7,210.0
5705,545 GARDEN CITY CONNECTOR,GARDEN CITY BEACH,SC,29576-7847,(843) 357-6560,33.58789,-79.0109505,18.0,Night,0.0,0.0,0.0,3.3,167.0
625,1310 N FRASER ST,GEORGETOWN,SC,29440-2800,(843) 527-9970,33.393724,-79.286271,17.4,Night,0.0,0.0,0.0,4.5,119.0
2928,605 SAINT JAMES AVE,GOOSE CREEK,SC,29445-2758,(843) 553-5421,33.0017488,-80.0416832,19.2,Night,0.0,0.0,3.0,5.4,98.0
3646,1635 RED BANK RD,GOOSE CREEK,SC,29445-4589,(843) 619-4662,32.9594306,-79.9386981,18.6,Night,0.0,0.0,0.0,3.1,69.0
3899,215 SAINT JAMES AVE,GOOSE CREEK,SC,29445-2938,(843) 714-6288,33.0017488,-80.0416832,19.2,Night,0.0,0.0,3.0,5.4,98.0
640,1451 WOODRUFF RD,GREENVILLE,SC,29607-5741,(864) 297-3031,34.8235098,-82.2854551,16.1,Night,0.0,0.0,0.0,8.9,230.0
641,6134 WHITE HORSE RD,GREENVILLE,SC,29611-3837,(864) 295-3181,34.8570305,-82.4537489,15.1,Night,0.0,0.0,0.0,1.5,256.0
2328,2014 WADE HAMPTON BLVD,GREENVILLE,SC,29615-1037,(864) 214-8700,34.8826031,-82.3553141,15.8,Night,0.0,0.0,0.0,8.5,234.0
3192,11410 ANDERSON RD,GREENVILLE,SC,29611-0000,(864) 605-6039,34.7888389,-82.477899,14.7,Night,0.0,0.0,0.0,1.5,194.0
4452,5009 OLD BUNCOMBE RD,GREENVILLE,SC,29617-8203,(864) 605-6309,34.9118037,-82.4311159,15.2,Night,0.0,0.0,0.0,2.5,45.0
4583,3925 PELHAM RD,GREENVILLE,SC,29615-5004,(864) 288-8081,34.8618812,-82.2638107,15.4,Night,0.0,0.0,0.0,6.6,241.0
1382,508 NW BYPASS 72,GREENWOOD,SC,29649-1300,(864) 229-2232,34.206912,-82.1885306,16.8,Night,0.0,0.0,0.0,10.5,184.0
6887,300 BYPASS 25 NE,GREENWOOD,SC,29646-3009,(864) 321-6028,34.194818,-82.163778,16.5,Night,0.0,0.0,0.0,10.1,182.0
2687,14055 E WADE HAMPTON BLVD,GREER,SC,29651-1500,(864) 877-1928,34.9442897,-82.2073736,15.6,Night,0.0,0.0,0.0,8.2,221.0
4145,805 W WADE HAMPTON BLVD STE B,GREER,SC,29650-1311,(864) 655-6422,34.9465347,-82.2464176,15.9,Night,0.0,0.0,0.0,8.1,225.0
2832,4400 US HIGHWAY 278,HARDEEVILLE,SC,29927-9733,(843) 208-3000,32.309372,-80.995184,19.3,Night,0.0,0.0,0.0,5.6,75.0
1135,1150 S 4TH ST,HARTSVILLE,SC,29550-0705,(843) 383-4891,34.3570064,-80.0644073,18.0,Night,0.0,0.0,0.0,7.4,203.0
728,25 PEMBROKE DR,HILTON HEAD ISLAND,SC,29926-2259,(843) 681-3011,32.211604,-80.728675,19.1,Night,0.0,0.0,0.0,6.5,87.0
4237,10048 CHARLOTTE HWY,INDIAN LAND,SC,29707-7135,(803) 802-6666,35.0107802,-80.8494372,16.4,Night,0.0,0.0,0.0,10.1,176.0
4440,1180 DUTCH FORK RD,IRMO,SC,29063-8874,(803) 781-7775,34.127358,-81.220387,17.1,Night,0.0,0.0,0.0,7.6,185.0
3713,3685 LADSON RD,LADSON,SC,29456-4304,(843) 879-5289,32.978876,-80.128208,19.3,Night,0.4,0.0,3.0,4.0,100.0
621,900 US 52 HWY,LAKE CITY,SC,29560-2416,(843) 394-7405,33.8473,-79.76424,16.7,Night,0.0,0.0,0.0,6.5,177.0
5745,175 HIGHWAY 274,LAKE WYLIE,SC,29710-6045,(803) 619-7021,35.12238,-81.082061,15.2,Night,0.0,0.0,0.0,5.6,230.0
1030,805 LANCASTER BYP W,LANCASTER,SC,29720-4773,(803) 286-5445,34.7342119,-80.7847088,16.6,Night,0.0,0.0,0.0,8.0,188.0
1130,922 E MAIN ST,LAURENS,SC,29360-3616,(864) 682-8100,34.4890545,-81.9835379,15.0,Night,0.0,0.0,0.0,6.6,158.0
4420,115 E CHURCH ST,LEESVILLE,SC,29070-7595,(803) 532-5332,33.9175811,-81.5292281,17.1,Night,0.0,0.0,0.0,9.4,184.0
